Code,School Name,Street,Suburb,State,Postcode,Postal Street,Postal Suburb,Postal State,Postal Postcode,Latitude,Longitude,Phone,Education Region,Broad Classification,Classification Group
5001,ADAM ROAD PRIMARY SCHOOL,HOTCHIN STREET,SOUTH BUNBURY,WA,6230,HOTCHIN STREET,SOUTH BUNBURY,WA,6230,-33.357951,115.635371,08 9796 3000,SOUTH WEST,Primary Schools,PRIMARY SCHOOLS
1463,AL-AMEEN COLLEGE,57 SOUTHGATE ROAD,LANGFORD,WA,6147,57 SOUTHGATE ROAD,LANGFORD,WA,6147,-32.04605574,115.9371583,08 9458 5206,SOUTH METROPOLITAN,NON-GOVT SCHOOLS,NON-GOVERNMENT
1397,AL-HIDAYAH ISLAMIC SCHOOL,CNR HEDLEY ST/NYAMUP WAY,BENTLEY,WA,6102,CNR HEDLEY ST/NYAMUP WAY,BENTLEY,WA,6102,-32.01035814,115.9115641,08 9351 8593,SOUTH METROPOLITAN,NON-GOVT SCHOOLS,NON-GOVERNMENT
8001,ALBANY COMMUNITY KINDERGARTEN,136 SERPENTINE ROAD,ALBANY,WA,6330,PO BOX 5670,ALBANY,WA,6332,-35.02145966,117.8809869,08 9841 1864,SOUTH WEST,Community Kindergartens,COMMUNITY KINDERGARTENS
5002,ALBANY PRIMARY SCHOOL,SUFFOLK STREET,ALBANY,WA,6330,SUFFOLK STREET,ALBANY,WA,6330,-35.01821151,117.8916106,08 9844 2860,SOUTH WEST,Primary Schools,PRIMARY SCHOOLS
6151,ALBANY SECONDARY EDUCATION SUPPORT CENTRE,65 ANSON ROAD,ALBANY,WA,6330,65 ANSON ROAD,ALBANY,WA,6330,-34.99074882,117.8668674,08 9844 2550,SOUTH WEST,Education Support Centres,EDUCATION SUPPORT
4001,ALBANY SENIOR HIGH SCHOOL,1 CAMPBELL ROAD,ALBANY,WA,6330,1 CAMPBELL ROAD,ALBANY,WA,6330,-35.02044765,117.8917733,08 6821 1700,SOUTH WEST,Senior High Schools,SECONDARY SCHOOLS
5693,ALINJARRA PRIMARY SCHOOL,33 NORTHUMBERLAND AVENUE,ALEXANDER HEIGHTS,WA,6064,33 NORTHUMBERLAND AVENUE,ALEXANDER HEIGHTS,WA,6064,-31.82962571,115.8701402,08 9462 9950,NORTH METROPOLITAN,Primary Schools,PRIMARY SCHOOLS
1488,ALKIMOS BAPTIST COLLEGE,60 SEAGROVE BOULEVARD,MERRIWA,WA,6030,60 SEAGROVE BOULEVARD,MERRIWA,WA,6030,-31.66032819,115.7101785,08 9406 8189,NORTH METROPOLITAN,NON-GOVT SCHOOLS,NON-GOVERNMENT
5848,ALKIMOS BEACH PRIMARY SCHOOL,200 LEATHERBACK BOULEVARD,ALKIMOS,WA,6038,200 LEATHERBACK BOULEVARD,ALKIMOS,WA,6038,-31.625186,115.678659,08 9561 7200,NORTH METROPOLITAN,Primary Schools,PRIMARY SCHOOLS
4211,ALKIMOS COLLEGE,101 SANTORINI PROMENADE,ALKIMOS,WA,6038,101 SANTORINI PROMENADE,ALKIMOS,WA,6038,-31.629987,115.694233,08 9561 7300,NORTH METROPOLITAN,Senior High Schools,SECONDARY SCHOOLS
5844,ALKIMOS PRIMARY SCHOOL,340 BENENDEN AVENUE,ALKIMOS,WA,6038,340 BENENDEN AVENUE,ALKIMOS,WA,6038,-31.62699105,115.7026573,08 9562 9800,NORTH METROPOLITAN,Primary Schools,PRIMARY SCHOOLS
1277,ALL SAINTS' COLLEGE,28 EWING AVENUE,BULL CREEK,WA,6149,28 EWING AVENUE,BULL CREEK,WA,6149,-32.04946998,115.867023,08 9313 9333,SOUTH METROPOLITAN,NON-GOVT SCHOOLS,NON-GOVERNMENT
5006,ALLANSON PRIMARY SCHOOL,CAMERON STREET,ALLANSON,WA,6225,CAMERON STREET,ALLANSON,WA,6225,-33.33580893,116.099005,08 9735 2800,SOUTH WEST,Primary Schools,PRIMARY SCHOOLS
5007,ALLENDALE PRIMARY SCHOOL,52 WITTENOOM STREET,GERALDTON,WA,6530,52 WITTENOOM STREET,GERALDTON,WA,6530,-28.76430303,114.6237354,08 9923 6600,MIDWEST,Primary Schools,PRIMARY SCHOOLS
1478,ALTA-1 COLLEGE,12 WINTON ROAD,JOONDALUP,WA,6027,12 WINTON ROAD,JOONDALUP,WA,6027,-31.78537164,115.8133126,08 9403 8200,NORTH METROPOLITAN,NON-GOVT SCHOOLS,NON-GOVERNMENT
1545,ALTA-1 KIMBERLEY COLLEGE,LOT 579 PACKSADDLE ROAD,KUNUNURRA,WA,6743,LOT 579 PACKSADDLE ROAD,KUNUNURRA,WA,6743,-15.795972,128.688089,08 9403 8200,KIMBERLEY,NON-GOVT SCHOOLS,NON-GOVERNMENT
5008,AMAROO PRIMARY SCHOOL,79 JONES STREET,COLLIE,WA,6225,79 JONES STREET,COLLIE,WA,6225,-33.35205078,116.149663,08 9735 9400,SOUTH WEST,Primary Schools,PRIMARY SCHOOLS
5841,ANNE HAMERSLEY PRIMARY SCHOOL,16 DUNNETT DRIVE,ELLENBROOK,WA,6069,16 DUNNETT DRIVE,ELLENBROOK,WA,6069,-31.74539641,116.0087173,08 9297 7000,NORTH METROPOLITAN,Primary Schools,PRIMARY SCHOOLS
5509,ANZAC TERRACE PRIMARY SCHOOL,176 ANZAC TERRACE,BASSENDEAN,WA,6054,176 ANZAC TERRACE,BASSENDEAN,WA,6054,-31.89719261,115.9372531,08 9352 2600,NORTH METROPOLITAN,Primary Schools,PRIMARY SCHOOLS
5010,APPLECROSS PRIMARY SCHOOL,65 KINTAIL ROAD,APPLECROSS,WA,6153,65 KINTAIL ROAD,APPLECROSS,WA,6153,-32.01084327,115.8395984,08 6274 1850,SOUTH METROPOLITAN,Primary Schools,PRIMARY SCHOOLS
4002,APPLECROSS SENIOR HIGH SCHOOL,LINKS ROAD,ARDROSS,WA,6153,LINKS ROAD,ARDROSS,WA,6153,-32.029376,115.83509,08 9314 9393,SOUTH METROPOLITAN,Senior High Schools,SECONDARY SCHOOLS
1107,AQUINAS COLLEGE,58 MT HENRY ROAD,SALTER POINT,WA,6152,58 MT HENRY ROAD,SALTER POINT,WA,6152,-32.02617519,115.8617538,08 9450 0600,SOUTH METROPOLITAN,NON-GOVT SCHOOLS,NON-GOVERNMENT
1100,ARANMORE CATHOLIC COLLEGE,41 FRANKLIN STREET,LEEDERVILLE,WA,6007,41 FRANKLIN STREET,LEEDERVILLE,WA,6007,-31.92706854,115.8431695,08 9201 5200,NORTH METROPOLITAN,NON-GOVT SCHOOLS,NON-GOVERNMENT
1241,ARANMORE CATHOLIC PRIMARY SCHOOL,20 BRENTHAM STREET,LEEDERVILLE,WA,6007,20 BRENTHAM STREET,LEEDERVILLE,WA,6007,-31.92790363,115.8392341,08 6318 7800,NORTH METROPOLITAN,NON-GOVT SCHOOLS,NON-GOVERNMENT
5792,ARBOR GROVE PRIMARY SCHOOL,BROOKMOUNT DRIVE,ELLENBROOK,WA,6069,BROOKMOUNT DRIVE,ELLENBROOK,WA,6069,-31.77105084,115.962637,08 6497 4800,NORTH METROPOLITAN,Primary Schools,PRIMARY SCHOOLS
5012,ARDROSS PRIMARY SCHOOL,46 LINKS ROAD,ARDROSS,WA,6153,46 LINKS ROAD,ARDROSS,WA,6153,-32.0274405,115.8346577,08 9263 1350,SOUTH METROPOLITAN,Primary Schools,PRIMARY SCHOOLS
6050,ARMADALE EDUCATION SUPPORT CENTRE,169 SOUTH WESTERN HIGHWAY,ARMADALE,WA,6112,PO BOX 189,ARMADALE,WA,6992,-32.16152603,116.0143523,08 9497 6435,SOUTH METROPOLITAN,Education Support Centres,EDUCATION SUPPORT
5014,ARMADALE PRIMARY SCHOOL,1 CARRADINE ROAD,ARMADALE,WA,6112,1 CARRADINE ROAD,ARMADALE,WA,6112,-32.14823967,116.0264848,08 9391 4500,SOUTH METROPOLITAN,Primary Schools,PRIMARY SCHOOLS
4003,ARMADALE SENIOR HIGH SCHOOL,169 SOUTH WESTERN HIGHWAY,ARMADALE,WA,6112,PO BOX 189,ARMADALE,WA,6992,-32.16152603,116.0143523,08 9497 6400,SOUTH METROPOLITAN,Senior High Schools,SECONDARY SCHOOLS
5676,ASHBURTON DRIVE PRIMARY SCHOOL,6 NULLAGINE WAY,GOSNELLS,WA,6110,6 NULLAGINE WAY,GOSNELLS,WA,6110,-32.0862307,115.9841976,08 9234 6300,SOUTH METROPOLITAN,Primary Schools,PRIMARY SCHOOLS
5786,ASHDALE PRIMARY SCHOOL,51 ASHDALE BOULEVARD,DARCH,WA,6065,51 ASHDALE BOULEVARD,DARCH,WA,6065,-31.80875751,115.8437538,08 6207 4500,NORTH METROPOLITAN,Primary Schools,PRIMARY SCHOOLS
4181,ASHDALE SECONDARY COLLEGE,75 WESTPORT PARADE,DARCH,WA,6065,75 WESTPORT PARADE,DARCH,WA,6065,-31.81162275,115.8414952,08 6207 1300,NORTH METROPOLITAN,Senior High Schools,SECONDARY SCHOOLS
5015,ASHFIELD PRIMARY SCHOOL,65 MARGARET STREET,ASHFIELD,WA,6054,65 MARGARET STREET,ASHFIELD,WA,6054,-31.91530992,115.9409018,08 6216 1300,NORTH METROPOLITAN,Primary Schools,PRIMARY SCHOOLS
5854,ASPIRI PRIMARY SCHOOL,30 SUNRAY AVENUE,PIARA WATERS,WA,6112,30 SUNRAY AVENUE,PIARA WATERS,WA,6112,-32.138988,115.912209,08 9397 8300,SOUTH METROPOLITAN,Primary Schools,PRIMARY SCHOOLS
1287,ASSUMPTION CATHOLIC PRIMARY SCHOOL,22-34 GORDON ROAD,MANDURAH,WA,6210,22-34 GORDON ROAD,MANDURAH,WA,6210,-32.50994328,115.7464321,08 9583 8500,SOUTH METROPOLITAN,NON-GOVT SCHOOLS,NON-GOVERNMENT
1519,ATLANTIS BEACH BAPTIST COLLEGE,800 BREAKWATER DRIVE,TWO ROCKS,WA,6037,800 BREAKWATER DRIVE,TWO ROCKS,WA,6037,-31.473535,115.644623,08 9544 3000,NORTH METROPOLITAN,NON-GOVT SCHOOLS,NON-GOVERNMENT
5016,ATTADALE PRIMARY SCHOOL,WICHMANN ROAD,ATTADALE,WA,6156,WICHMANN ROAD,ATTADALE,WA,6156,-32.02544682,115.8018145,08 6274 1700,SOUTH METROPOLITAN,Primary Schools,PRIMARY SCHOOLS
4184,ATWELL COLLEGE,201 BRENCHLEY DRIVE,ATWELL,WA,6164,201 BRENCHLEY DRIVE,ATWELL,WA,6164,-32.14395682,115.8641462,08 6174 2200,SOUTH METROPOLITAN,Senior High Schools,SECONDARY SCHOOLS
5765,ATWELL PRIMARY SCHOOL,160 LYDON BOULEVARD,ATWELL,WA,6164,160 LYDON BOULEVARD,ATWELL,WA,6164,-32.13527555,115.867828,08 6174 2400,SOUTH METROPOLITAN,Primary Schools,PRIMARY SCHOOLS
5820,AUBIN GROVE PRIMARY SCHOOL,85 CAMDEN BOULEVARD,AUBIN GROVE,WA,6164,85 CAMDEN BOULEVARD,AUBIN GROVE,WA,6164,-32.17306065,115.8623522,08 6174 6500,SOUTH METROPOLITAN,Primary Schools,PRIMARY SCHOOLS
5017,AUGUSTA PRIMARY SCHOOL,32 ALLNUTT TERRACE,AUGUSTA,WA,6290,PO BOX 106,AUGUSTA,WA,6290,-34.31671839,115.1595029,08 9781 5100,SOUTH WEST,Primary Schools,PRIMARY SCHOOLS
1487,AUSTIN COVE BAPTIST COLLEGE,INLET BOULEVARD,SOUTH YUNDERUP,WA,6208,INLET BOULEVARD,SOUTH YUNDERUP,WA,6208,-32.59324476,115.8065154,08 9520 8200,SOUTH METROPOLITAN,NON-GOVT SCHOOLS,NON-GOVERNMENT
1491,AUSTRALIAN CHRISTIAN COLLEGE - DARLING DOWNS,10 NINTH ROAD,HILBERT,WA,6112,10 NINTH ROAD,HILBERT,WA,6112,-32.17468068,116.0042944,08 9391 1500,SOUTH METROPOLITAN,NON-GOVT SCHOOLS,NON-GOVERNMENT
1438,AUSTRALIAN CHRISTIAN COLLEGE - SOUTHLANDS,26 BREWSTER ROAD,ALBANY,WA,6330,26 BREWSTER ROAD,ALBANY,WA,6330,-34.99550802,117.9227056,08 9892 5100,SOUTH WEST,NON-GOVT SCHOOLS,NON-GOVERNMENT
1391,AUSTRALIAN ISLAMIC COLLEGE DIANELLA,81 CLEVELAND STREET,DIANELLA,WA,6059,81 CLEVELAND STREET,DIANELLA,WA,6059,-31.90293601,115.8744467,08 9375 9770,NORTH METROPOLITAN,NON-GOVT SCHOOLS,NON-GOVERNMENT
1547,AUSTRALIAN ISLAMIC COLLEGE FORRESTDALE,651 NICHOLSON ROAD,FORRESTDALE,WA,6112,651 NICHOLSON ROAD,FORRESTDALE,WA,6112,-32.16941842,115.9252832,08 9493 5819,SOUTH METROPOLITAN,NON-GOVT SCHOOLS,NON-GOVERNMENT
1546,AUSTRALIAN ISLAMIC COLLEGE HENLEY BROOK,230 & 238 HENLEY STREET,HENLEY BROOK,WA,6055,230 & 238 HENLEY STREET,HENLEY BROOK,WA,6055,-31.80563944,115.9793247,08 9375 9892,NORTH METROPOLITAN,NON-GOVT SCHOOLS,NON-GOVERNMENT
1441,AUSTRALIAN ISLAMIC COLLEGE KEWDALE,139 PRESIDENT STREET,KEWDALE,WA,6105,139 PRESIDENT STREET,KEWDALE,WA,6105,-31.97999061,115.9325273,08 9362 2100,SOUTH METROPOLITAN,NON-GOVT SCHOOLS,NON-GOVERNMENT
1331,AUSTRALIAN ISLAMIC COLLEGE THORNLIE,17 TONBRIDGE WAY,THORNLIE,WA,6108,17 TONBRIDGE WAY,THORNLIE,WA,6108,-32.05402507,115.9611396,08 9493 2718,SOUTH METROPOLITAN,NON-GOVT SCHOOLS,NON-GOVERNMENT
5629,AUSTRALIND PRIMARY SCHOOL,BARNES AVENUE,AUSTRALIND,WA,6233,PO BOX A630,AUSTRALIND,WA,6233,-33.28059897,115.7271368,08 9796 3900,SOUTH WEST,Primary Schools,PRIMARY SCHOOLS
4146,AUSTRALIND SENIOR HIGH SCHOOL,12 BREAK O'DAY DRIVE,AUSTRALIND,WA,6233,12 BREAK O'DAY DRIVE,AUSTRALIND,WA,6233,-33.27665965,115.7284365,08 9797 4400,SOUTH WEST,Senior High Schools,SECONDARY SCHOOLS
5853,AVELEY NORTH PRIMARY SCHOOL,77 STRINESDALE BOULEVARD,AVELEY,WA,6069,77 STRINESDALE BOULEVARD,AVELEY,WA,6069,-31.778441,115.991854,08 9297 7800,NORTH METROPOLITAN,Primary Schools,PRIMARY SCHOOLS
5821,AVELEY PRIMARY SCHOOL,8 BOLERO ROAD,AVELEY,WA,6069,8 BOLERO ROAD,AVELEY,WA,6069,-31.79108088,115.9905586,08 9297 7350,NORTH METROPOLITAN,Primary Schools,PRIMARY SCHOOLS
4209,AVELEY SECONDARY COLLEGE,MAFFINA PARADE,ELLENBROOK,WA,6069,MAFFINA PARADE,ELLENBROOK,WA,6069,-31.767004,115.987559,08 6296 1000,NORTH METROPOLITAN,Senior High Schools,SECONDARY SCHOOLS
6041,AVONVALE EDUCATION SUPPORT CENTRE,HUTT STREET,NORTHAM,WA,6401,PO BOX 1061,NORTHAM,WA,6401,-31.64551218,116.6613138,08 9621 5250,WHEATBELT,Education Support Centres,EDUCATION SUPPORT
5018,AVONVALE PRIMARY SCHOOL,HUTT STREET,NORTHAM,WA,6401,PO BOX 666,NORTHAM,WA,6401,-31.64551218,116.6613138,08 9621 5200,WHEATBELT,Primary Schools,PRIMARY SCHOOLS
5020,BABAKIN PRIMARY SCHOOL,FARRAR STREET,BABAKIN,WA,6428,PO BOX 288,CORRIGIN,WA,6375,-32.12359155,118.0209226,08 9065 2400,WHEATBELT,Primary Schools,PRIMARY SCHOOLS
5021,BADGINGARRA PRIMARY SCHOOL,MCNAMARA ROAD,BADGINGARRA,WA,6521,C/- POST OFFICE,BADGINGARRA,WA,6521,-30.4024941,115.550545,08 9652 8900,MIDWEST,Primary Schools,PRIMARY SCHOOLS
5022,BAKERS HILL PRIMARY SCHOOL,33 SAINT GEORGE STREET,BAKERS HILL,WA,6562,33 SAINT GEORGE STREET,BAKERS HILL,WA,6562,-31.75120467,116.4615984,08 9574 3100,WHEATBELT,Primary Schools,PRIMARY SCHOOLS
5023,BALCATTA PRIMARY SCHOOL,387 MAIN STREET,BALCATTA,WA,6021,387 MAIN STREET,BALCATTA,WA,6021,-31.88093054,115.8272729,08 9253 4900,NORTH METROPOLITAN,Primary Schools,PRIMARY SCHOOLS
4004,BALCATTA SENIOR HIGH SCHOOL,56 AMELIA STREET,BALCATTA,WA,6021,56 AMELIA STREET,BALCATTA,WA,6021,-31.87551716,115.8122429,08 9345 8200,NORTH METROPOLITAN,Senior High Schools,SECONDARY SCHOOLS
5847,BALDIVIS GARDENS PRIMARY SCHOOL,NADINE PROMENADE,BALDIVIS,WA,6171,NADINE PROMENADE,BALDIVIS,WA,6171,-32.300823,115.810062,08 9523 7000,SOUTH METROPOLITAN,Primary Schools,PRIMARY SCHOOLS
5024,BALDIVIS PRIMARY SCHOOL,214 FIFTY ROAD,BALDIVIS,WA,6171,214 FIFTY ROAD,BALDIVIS,WA,6171,-32.30718679,115.8174722,08 9523 5700,SOUTH METROPOLITAN,Primary Schools,PRIMARY SCHOOLS
4190,BALDIVIS SECONDARY COLLEGE,STILLWATER DRIVE,BALDIVIS,WA,6171,PO BOX 4119,BALDIVIS,WA,6171,-32.334099,115.828418,08 9523 3600,SOUTH METROPOLITAN,Senior High Schools,SECONDARY SCHOOLS
5580,BALER PRIMARY SCHOOL,BALER CLOSE,SOUTH HEDLAND,WA,6722,PO BOX 2621,SOUTH HEDLAND,WA,6722,-20.40461541,118.6124558,08 9172 8400,PILBARA,Primary Schools,PRIMARY SCHOOLS
5025,BALGA PRIMARY SCHOOL,11 FERNHURST CRESCENT,BALGA,WA,6061,11 FERNHURST CRESCENT,BALGA,WA,6061,-31.86059553,115.8448001,08 9253 4500,NORTH METROPOLITAN,Primary Schools,PRIMARY SCHOOLS
4050,BALGA SENIOR HIGH SCHOOL,2 MARKHAM WAY,BALGA,WA,6061,2 MARKHAM WAY,BALGA,WA,6061,-31.85134146,115.8465042,08 9247 0222,NORTH METROPOLITAN,Senior High Schools,SECONDARY SCHOOLS
5027,BALINGUP PRIMARY SCHOOL,CNR BROCKMAN AND STEERE STS,BALINGUP,WA,6253,PO BOX 372,BALINGUP,WA,6253,-33.78633822,115.9822069,08 9782 5900,SOUTH WEST,Primary Schools,PRIMARY SCHOOLS
4158,BALLAJURA COMMUNITY COLLEGE,ILLAWARRA CRESCENT SOUTH,BALLAJURA,WA,6066,ILLAWARRA CRESCENT SOUTH,BALLAJURA,WA,6066,-31.84474671,115.8934345,08 9262 7777,NORTH METROPOLITAN,Senior High Schools,SECONDARY SCHOOLS
5702,BALLAJURA PRIMARY SCHOOL,ILLAWARRA CRESCENT SOUTH,BALLAJURA,WA,6066,ILLAWARRA CRESCENT SOUTH,BALLAJURA,WA,6066,-31.83593382,115.892303,08 9338 2200,NORTH METROPOLITAN,Primary Schools,PRIMARY SCHOOLS
5609,BAMBARA PRIMARY SCHOOL,30 GOSSE ROAD,PADBURY,WA,6025,30 GOSSE ROAD,PADBURY,WA,6025,-31.79830122,115.7614207,08 6206 2150,NORTH METROPOLITAN,Primary Schools,PRIMARY SCHOOLS
5762,BANKSIA GROVE PRIMARY SCHOOL,14 VIRIDIAN DRIVE,BANKSIA GROVE,WA,6031,14 VIRIDIAN DRIVE,BANKSIA GROVE,WA,6031,-31.70254405,115.8089621,08 9233 6333    ,NORTH METROPOLITAN,Primary Schools,PRIMARY SCHOOLS
1577,BANKSIA MONTESSORI SCHOOL,17 CHATTON STREET,DIANELLA,WA,6059,17 CHATTON STREET,DIANELLA,WA,6059,-31.89277585,115.8692823,08 9275 5997,NORTH METROPOLITAN,NON-GOVT SCHOOLS,NON-GOVERNMENT
5701,BANKSIA PARK PRIMARY SCHOOL,HICKS STREET,LEEMING,WA,6149,HICKS STREET,LEEMING,WA,6149,-32.07166263,115.8754583,08 9266 6400,SOUTH METROPOLITAN,Primary Schools,PRIMARY SCHOOLS
5817,BANNISTER CREEK PRIMARY SCHOOL,92 PURLEY CRESCENT,LYNWOOD,WA,6147,92 PURLEY CRESCENT,LYNWOOD,WA,6147,-32.0397245,115.9285022,08 9366 0900,SOUTH METROPOLITAN,Primary Schools,PRIMARY SCHOOLS
5030,BASSENDEAN PRIMARY SCHOOL,70 WEST ROAD,BASSENDEAN,WA,6054,70 WEST ROAD,BASSENDEAN,WA,6054,-31.90747284,115.9534451,08 6216 1400,NORTH METROPOLITAN,Primary Schools,PRIMARY SCHOOLS
5519,BATEMAN PRIMARY SCHOOL,2 BARTLING CRESCENT,BATEMAN,WA,6150,2 BARTLING CRESCENT,BATEMAN,WA,6150,-32.05066001,115.8453415,08 6258 6900,SOUTH METROPOLITAN,Primary Schools,PRIMARY SCHOOLS
5830,BAYNTON WEST PRIMARY SCHOOL,MARNIYARRA LOOP,BAYNTON,WA,6714,MARNIYARRA LOOP,BAYNTON,WA,6714,-20.75252283,116.79939,08 9187 6200,PILBARA,Primary Schools,PRIMARY SCHOOLS
5031,BAYSWATER PRIMARY SCHOOL,MURRAY STREET,BAYSWATER,WA,6053,MURRAY STREET,BAYSWATER,WA,6053,-31.92081606,115.9117733,08 9462 6600,NORTH METROPOLITAN,Primary Schools,PRIMARY SCHOOLS
5190,BAYULU REMOTE COMMUNITY SCHOOL,GOGO STATION ROAD,VIA FITZROY CROSSING,WA,6765,PO BOX 76,FITZROY CROSSING,WA,6765,-18.28637,125.58345,08 9163 8650,KIMBERLEY,Remote Community Schools,PRIMARY SCHOOLS
5032,BEACHLANDS PRIMARY SCHOOL,50 WHITFIELD STREET,GERALDTON,WA,6530,PO BOX 7170,GERALDTON PO,WA,6531,-28.78770753,114.6043717,08 9923 6900,MIDWEST,Primary Schools,PRIMARY SCHOOLS
5033,BEACON PRIMARY SCHOOL,BROADBENT STREET,BEACON,WA,6472,C/- POST OFFICE,BEACON,WA,6472,-30.45065535,117.8688978,08 9686 0700,WHEATBELT,Primary Schools,PRIMARY SCHOOLS
5034,BEACONSFIELD PRIMARY SCHOOL,5 HALE STREET,BEACONSFIELD,WA,6162,5 HALE STREET,BEACONSFIELD,WA,6162,-32.068989,115.7593864,08 9432 1000,SOUTH METROPOLITAN,Primary Schools,PRIMARY SCHOOLS
5720,BEAUMARIS PRIMARY SCHOOL,20 BEAUMARIS BOULEVARD,OCEAN REEF,WA,6027,20 BEAUMARIS BOULEVARD,OCEAN REEF,WA,6027,-31.74873142,115.7355637,08 6206 3100,NORTH METROPOLITAN,Primary Schools,PRIMARY SCHOOLS
5084,BECKENHAM PRIMARY SCHOOL,386 RAILWAY PARADE,BECKENHAM,WA,6107,386 RAILWAY PARADE,BECKENHAM,WA,6107,-32.02408598,115.9573041,08 9278 3700,SOUTH METROPOLITAN,Primary Schools,PRIMARY SCHOOLS
1349,BEECHBORO CHRISTIAN SCHOOL,375 MARSHALL ROAD,BEECHBORO,WA,6063,375 MARSHALL ROAD,BEECHBORO,WA,6063,-31.85664957,115.9340083,08 9377 5211,NORTH METROPOLITAN,NON-GOVT SCHOOLS,NON-GOVERNMENT
5696,BEECHBORO PRIMARY SCHOOL,20 KING ROAD,BEECHBORO,WA,6063,20 KING ROAD,BEECHBORO,WA,6063,-31.86780968,115.9357571,08 9392 5300,NORTH METROPOLITAN,Primary Schools,PRIMARY SCHOOLS
5756,BEELIAR PRIMARY SCHOOL,86 THE GRANGE,BEELIAR,WA,6164,86 THE GRANGE,BEELIAR,WA,6164,-32.13297396,115.8207228,08 6174 1400,SOUTH METROPOLITAN,Primary Schools,PRIMARY SCHOOLS
5859,BEENYUP PRIMARY SCHOOL,66 SHEPPARTON BOULEVARD,BYFORD,WA,6122,66 SHEPPARTON BOULEVARD,BYFORD,WA,6122,-32.233554,115.992722,08 9526 6500,SOUTH METROPOLITAN,Primary Schools,PRIMARY SCHOOLS
6057,BELDON EDUCATION SUPPORT CENTRE,10 PACIFIC WAY,BELDON,WA,6027,10 PACIFIC WAY,BELDON,WA,6027,-31.7746556,115.7572522,08 6207 3280,NORTH METROPOLITAN,Education Support Centres,EDUCATION SUPPORT
5674,BELDON PRIMARY SCHOOL,10 PACIFIC WAY,BELDON,WA,6027,10 PACIFIC WAY,BELDON,WA,6027,-31.7746556,115.7572522,08 6207 3240,NORTH METROPOLITAN,Primary Schools,PRIMARY SCHOOLS
5036,BELMAY PRIMARY SCHOOL,410 SYDENHAM STREET,CLOVERDALE,WA,6105,410 SYDENHAM STREET,CLOVERDALE,WA,6105,-31.9507814,115.9466374,08 6278 5400,SOUTH METROPOLITAN,Primary Schools,PRIMARY SCHOOLS
4005,BELMONT CITY COLLEGE,106 FISHER STREET,BELMONT,WA,6104,106 FISHER STREET,BELMONT,WA,6104,-31.95889136,115.9344344,08 9473 9800,SOUTH METROPOLITAN,Senior High Schools,SECONDARY SCHOOLS
5038,BELMONT PRIMARY SCHOOL,213 GREAT EASTERN HIGHWAY,BELMONT,WA,6104,213 GREAT EASTERN HIGHWAY,BELMONT,WA,6104,-31.94467587,115.9228256,08 6216 1800,SOUTH METROPOLITAN,Primary Schools,PRIMARY SCHOOLS
4153,BELRIDGE SECONDARY COLLEGE,17 GWENDOLINE DRIVE,BELDON,WA,6027,17 GWENDOLINE DRIVE,BELDON,WA,6027,-31.77038385,115.7631759,08 9408 8000,NORTH METROPOLITAN,Senior High Schools,SECONDARY SCHOOLS
6091,BELRIDGE SECONDARY EDUCATION SUPPORT CENTRE,17 GWENDOLINE DRIVE,BELDON,WA,6027,17 GWENDOLINE DRIVE,BELDON,WA,6027,-31.77038385,115.7631759,08 9408 8050,NORTH METROPOLITAN,Education Support Centres,EDUCATION SUPPORT
5039,BENCUBBIN PRIMARY SCHOOL,CNR MURRAY/MONGER STREETS,BENCUBBIN,WA,6477,C/- POST OFFICE,BENCUBBIN,WA,6477,-30.8076984,117.8572615,08 9685 2500,WHEATBELT,Primary Schools,PRIMARY SCHOOLS
5041,BENTLEY PRIMARY SCHOOL,15 HEDLEY STREET,BENTLEY,WA,6102,15 HEDLEY STREET,BENTLEY,WA,6102,-32.01035815,115.9115642,08 6455 8000,SOUTH METROPOLITAN,Primary Schools,PRIMARY SCHOOLS
5799,BERTRAM PRIMARY SCHOOL,CHAMPION DRIVE,BERTRAM,WA,6167,CHAMPION DRIVE,BERTRAM,WA,6167,-32.24665386,115.843541,08 6174 1000,SOUTH METROPOLITAN,Primary Schools,PRIMARY SCHOOLS
1285,BETHEL CHRISTIAN SCHOOL,20 BETHEL WAY,ALBANY,WA,6330,20 BETHEL WAY,ALBANY,WA,6330,-35.00481744,117.881185,08 9842 2100,SOUTH WEST,NON-GOVT SCHOOLS,NON-GOVERNMENT
4060,BEVERLEY DISTRICT HIGH SCHOOL,20 JOHN STREET,BEVERLEY,WA,6304,20 JOHN STREET,BEVERLEY,WA,6304,-32.10031422,116.9276944,08 9646 2500,WHEATBELT,District High Schools,DISTRICT HIGH SCHOOLS
5686,BIBRA LAKE PRIMARY SCHOOL,29 ANNOIS ROAD,BIBRA LAKE,WA,6163,29 ANNOIS ROAD,BIBRA LAKE,WA,6163,-32.09409186,115.8391505,08 6173 7100,SOUTH METROPOLITAN,Primary Schools,PRIMARY SCHOOLS
5044,BICTON PRIMARY SCHOOL,VIEW TERRACE,BICTON,WA,6157,VIEW TERRACE,BICTON,WA,6157,-32.03272881,115.786548,08 9205 5800,SOUTH METROPOLITAN,Primary Schools,PRIMARY SCHOOLS
5046,BINDOON PRIMARY SCHOOL,19 LEARNERS WAY,BINDOON,WA,6502,19 LEARNERS WAY,BINDOON,WA,6502,-31.38017209,116.0971002,08 9576 4500,NORTH METROPOLITAN,Primary Schools,PRIMARY SCHOOLS
5047,BINNU PRIMARY SCHOOL,LAUDER STREET,BINNU,WA,6532,C/- POST OFFICE,BINNU,WA,6532,-28.04197194,114.6755891,08 9936 0300,MIDWEST,Primary Schools,PRIMARY SCHOOLS
1328,BIRLIRR NGAWIYIWU CATHOLIC SCHOOL,RINGER SOAK (KUNDAT DJARU COMM),VIA HALLS CREEK,WA,6770,RINGER SOAK (KUNDAT DJARU COMM),VIA HALLS CREEK,WA,6770,-18.794047,128.615847,08 9168 8720,KIMBERLEY,NON-GOVT SCHOOLS,NON-GOVERNMENT
5808,BLETCHLEY PARK PRIMARY SCHOOL,LOT 5003 BALFOUR STREET,SOUTHERN RIVER,WA,6110,LOT 5003 BALFOUR STREET,SOUTHERN RIVER,WA,6110,-32.10259536,115.9462328,08 9234 6400,SOUTH METROPOLITAN,Primary Schools,PRIMARY SCHOOLS
1580,BLUE GUM MONTESSORI SCHOOL,11 HOPE ROAD,BIBRA LAKE,WA,6163,11 HOPE ROAD,BIBRA LAKE,WA,6163,-32.08519543,115.838553,08 9417 4060,SOUTH METROPOLITAN,NON-GOVT SCHOOLS,NON-GOVERNMENT
5049,BLUFF POINT PRIMARY SCHOOL,18 MITCHELL STREET,BLUFF POINT,WA,6530,PO BOX 7166,GERALDTON PO,WA,6531,-28.7403527,114.6215834,08 9923 6650,MIDWEST,Primary Schools,PRIMARY SCHOOLS
4213,BOB HAWKE COLLEGE,200 ROBERTS ROAD,SUBIACO,WA,6008,PO BOX 8150,SUBIACO,WA,6008,-31.944538,115.8323,08 9222 5600,NORTH METROPOLITAN,Senior High Schools,SECONDARY SCHOOLS
4061,BODDINGTON DISTRICT HIGH SCHOOL,25 POLLARD STREET,BODDINGTON,WA,6390,25 POLLARD STREET,BODDINGTON,WA,6390,-32.80157748,116.467088,08 9884 2900,WHEATBELT,District High Schools,DISTRICT HIGH SCHOOLS
1593,BOLD PARK COMMUNITY SCHOOL,61-63 POWIS STREET,WEMBLEY,WA,6014,61-63 POWIS STREET,WEMBLEY,WA,6014,-31.92384064,115.8231847,08 9387 5050,NORTH METROPOLITAN,NON-GOVT SCHOOLS,NON-GOVERNMENT
5052,BOLGART PRIMARY SCHOOL,28 SMITH STREET,BOLGART,WA,6568,28 SMITH STREET,BOLGART,WA,6568,-31.27358225,116.5108606,08 9627 5300,WHEATBELT,Primary Schools,PRIMARY SCHOOLS
5053,BOORAGOON PRIMARY SCHOOL,10 CLEMENTS ROAD,BOORAGOON,WA,6154,10 CLEMENTS ROAD,BOORAGOON,WA,6154,-32.03553443,115.8264595,08 6274 1800,SOUTH METROPOLITAN,Primary Schools,PRIMARY SCHOOLS
5054,BORDEN PRIMARY SCHOOL,STONE STREET,BORDEN,WA,6338,STONE STREET,BORDEN,WA,6338,-34.07290497,118.2630312,08 9828 3300,SOUTH WEST,Primary Schools,PRIMARY SCHOOLS
5055,BOULDER PRIMARY SCHOOL,LANE STREET,BOULDER,WA,6432,LOCKED BAG 1,BOULDER,WA,6432,-30.78003681,121.4875325,08 9092 4100,GOLDFIELDS,Primary Schools,PRIMARY SCHOOLS
5058,BOYANUP PRIMARY SCHOOL,45 THOMAS STREET,BOYANUP,WA,6237,45 THOMAS STREET,BOYANUP,WA,6237,-33.48596223,115.7308445,08 9732 3700,SOUTH WEST,Primary Schools,PRIMARY SCHOOLS
5718,BOYARE PRIMARY SCHOOL,9 THREADLEAF WAY,MIRRABOOKA,WA,6061,9 THREADLEAF WAY,MIRRABOOKA,WA,6061,-31.85724948,115.8734207,08 9338 2500,NORTH METROPOLITAN,Primary Schools,PRIMARY SCHOOLS
4062,BOYUP BROOK DISTRICT HIGH SCHOOL,77 BARRON STREET,BOYUP BROOK,WA,6244,77 BARRON STREET,BOYUP BROOK,WA,6244,-33.83634699,116.3913376,08 9765 0000,SOUTH WEST,District High Schools,DISTRICT HIGH SCHOOLS
5863,BRABHAM PRIMARY SCHOOL,31 LAKEFIELD DRIVE,BRABHAM,WA,6055,31 LAKEFIELD DRIVE,BRABHAM,WA,6055,-31.821305,115.97205,08 9265 1840,NORTH METROPOLITAN,Primary Schools,PRIMARY SCHOOLS
5638,BRAESIDE PRIMARY SCHOOL,CARINYA GARDENS,KATANNING,WA,6317,CARINYA GARDENS,KATANNING,WA,6317,-33.679,117.56,08 9821 3500,WHEATBELT,Primary Schools,PRIMARY SCHOOLS
5624,BRAMFIELD PARK PRIMARY SCHOOL,YULE STREET,MADDINGTON,WA,6109,YULE STREET,MADDINGTON,WA,6109,-32.04680274,115.9950359,08 9217 8600,SOUTH METROPOLITAN,Primary Schools,PRIMARY SCHOOLS
5060,BREMER BAY PRIMARY SCHOOL,GARNETT ROAD,BREMER BAY,WA,6338,GARNETT ROAD,BREMER BAY,WA,6338,-34.393283,119.37476,08 9837 1200,SOUTH WEST,Primary Schools,PRIMARY SCHOOLS
5061,BRENTWOOD PRIMARY SCHOOL,2 DAWSON ROAD,BRENTWOOD,WA,6153,2 DAWSON ROAD,BRENTWOOD,WA,6153,-32.04149754,115.847177,08 6258 6950,SOUTH METROPOLITAN,Primary Schools,PRIMARY SCHOOLS
4007,BRIDGETOWN HIGH SCHOOL,58 STEERE STREET,BRIDGETOWN,WA,6255,PO BOX 600,BRIDGETOWN,WA,6255,-33.95993882,116.1420907,08 9761 0100,SOUTH WEST,High Schools,SECONDARY SCHOOLS
5062,BRIDGETOWN PRIMARY SCHOOL,178 ROE STREET,BRIDGETOWN,WA,6255,178 ROE STREET,BRIDGETOWN,WA,6255,-33.95485467,116.1407977,08 9761 0150,SOUTH WEST,Primary Schools,PRIMARY SCHOOLS
5586,BROOKMAN PRIMARY SCHOOL,34 BROOKMAN AVENUE,LANGFORD,WA,6147,34 BROOKMAN AVENUE,LANGFORD,WA,6147,-32.03670459,115.9390727,08 9366 0950,SOUTH METROPOLITAN,Primary Schools,PRIMARY SCHOOLS
4063,BROOKTON DISTRICT HIGH SCHOOL,20 TILLER STREET,BROOKTON,WA,6306,20 TILLER STREET,BROOKTON,WA,6306,-32.37207392,117.0086817,08 9642 5000,WHEATBELT,District High Schools,DISTRICT HIGH SCHOOLS
5839,BROOME NORTH PRIMARY SCHOOL,100 TANAMI DRIVE,BROOME,WA,6725,PO BOX 5996,BROOME,WA,6725,-17.9266374,122.2301416,08 9195 3000,KIMBERLEY,Primary Schools,PRIMARY SCHOOLS
5712,BROOME PRIMARY SCHOOL,WELD STREET,BROOME,WA,6725,PO BOX 1744,BROOME,WA,6725,-17.96120109,122.2379626,08 9194 7500,KIMBERLEY,Primary Schools,PRIMARY SCHOOLS
4064,BROOME SENIOR HIGH SCHOOL,FREDERICK STREET,BROOME,WA,6725,PO BOX 1316,BROOME,WA,6725,-17.95614273,122.2323264,08 9195 3100,KIMBERLEY,Senior High Schools,SECONDARY SCHOOLS
5065,BROOMEHILL PRIMARY SCHOOL,HASSELL STREET,BROOMEHILL,WA,6318,C/- POST OFFICE,BROOMEHILL,WA,6318,-33.84507375,117.6342811,08 9824 0500,WHEATBELT,Primary Schools,PRIMARY SCHOOLS
4065,BRUCE ROCK DISTRICT HIGH SCHOOL,37 DUNSTALL STREET,BRUCE ROCK,WA,6418,37 DUNSTALL STREET,BRUCE ROCK,WA,6418,-31.87363474,118.1476627,08 9082 1900,WHEATBELT,District High Schools,DISTRICT HIGH SCHOOLS
5067,BRUNSWICK JUNCTION PRIMARY SCHOOL,6 VINCENT STREET,BRUNSWICK JUNCTION,WA,6224,PO BOX 201,BRUNSWICK JUNCTION,WA,6224,-33.2517339,115.8341389,08 9788 9100,SOUTH WEST,Primary Schools,PRIMARY SCHOOLS
5574,BULL CREEK PRIMARY SCHOOL,32 HARDY STREET,BULL CREEK,WA,6149,32 HARDY STREET,BULL CREEK,WA,6149,-32.06013661,115.8610064,08 6216 4400,SOUTH METROPOLITAN,Primary Schools,PRIMARY SCHOOLS
4066,BULLSBROOK COLLEGE,CHITTERING ROAD,BULLSBROOK,WA,6084,CHITTERING ROAD,BULLSBROOK,WA,6084,-31.66171848,116.033179,08 9501 7600,NORTH METROPOLITAN,K-12 SCHOOLS,K-12 SCHOOLS
8039,BULLSBROOK COMMUNITY KINDERGARTEN,25 CAPORN STREET,EAST BULLSBROOK,WA,6084,PO BOX 525,BULLSBROOK,WA,6084,-31.66245045,116.0303767,08 9571 1392,NORTH METROPOLITAN,Community Kindergartens,COMMUNITY KINDERGARTENS
1524,BUNBURY BAPTIST COLLEGE,133 NORTON PROMENADE,DALYELLUP,WA,6230,133 NORTON PROMENADE,DALYELLUP,WA,6230,-33.400403,115.627001,08 9790 0000,SOUTH WEST,NON-GOVT SCHOOLS,NON-GOVERNMENT
1222,BUNBURY CATHEDRAL GRAMMAR SCHOOL,5 ALLEN ROAD,GELORUP,WA,6230,5 ALLEN ROAD,GELORUP,WA,6230,-33.404668,115.63864,08 9722 6000,SOUTH WEST,NON-GOVT SCHOOLS,NON-GOVERNMENT
1029,BUNBURY CATHOLIC COLLEGE,LOT 4 RODSTED STREET,BUNBURY,WA,6230,LOT 4 RODSTED STREET,BUNBURY,WA,6230,-33.34342203,115.6614239,08 9721 0000,SOUTH WEST,NON-GOVT SCHOOLS,NON-GOVERNMENT
5070,BUNBURY PRIMARY SCHOOL,2-18 LOVEGROVE AVENUE,BUNBURY,WA,6230,PO BOX 1908,BUNBURY,WA,6231,-33.33305655,115.6381042,08 9796 3050,SOUTH WEST,Primary Schools,PRIMARY SCHOOLS
4008,BUNBURY SENIOR HIGH SCHOOL,10-44 HAIG CRESCENT,BUNBURY,WA,6230,10-44 HAIG CRESCENT,BUNBURY,WA,6230,-33.32746917,115.6326077,08 9797 8900,SOUTH WEST,Senior High Schools,SECONDARY SCHOOLS
5508,BUNGAREE PRIMARY SCHOOL,9 CENTAURUS STREET,ROCKINGHAM,WA,6168,9 CENTAURUS STREET,ROCKINGHAM,WA,6168,-32.29110842,115.7378237,08 9553 8400,SOUTH METROPOLITAN,Primary Schools,PRIMARY SCHOOLS
6031,BURBRIDGE SCHOOL,46 BURBRIDGE AVENUE,KOONDOOLA,WA,6064,46 BURBRIDGE AVENUE,KOONDOOLA,WA,6064,-31.83872675,115.8619753,08 9345 6700,NORTH METROPOLITAN,Education Support Schools,EDUCATION SUPPORT
5868,BURNS BEACH PRIMARY SCHOOL,10 WATCOMBE AVENUE,BURNS BEACH,WA,6028,10 WATCOMBE AVENUE,BURNS BEACH,WA,6028,-31.727164,115.729576,08 9233 6850,NORTH METROPOLITAN,Primary Schools,PRIMARY SCHOOLS
5591,BURRENDAH PRIMARY SCHOOL,CASTLEREAGH CLOSE,WILLETTON,WA,6155,CASTLEREAGH CLOSE,WILLETTON,WA,6155,-32.05988334,115.8805782,08 9266 6200,SOUTH METROPOLITAN,Primary Schools,PRIMARY SCHOOLS
5715,BURRINGURRAH REMOTE COMMUNITY SCHOOL,BURRINGURRAH COMMUNITY,MOUNT JAMES,WA,6642,MOUNT JAMES LOCKED BAG,MEEKATHARRA,WA,6642,-24.651178,116.932686,08 9943 1650,MIDWEST,Remote Community Schools,PRIMARY SCHOOLS
5076,BUSSELTON PRIMARY SCHOOL,AVOCET BOULEVARD,BUSSELTON,WA,6280,AVOCET BOULEVARD,BUSSELTON,WA,6280,-33.63955416,115.3763212,08 9751 6400,SOUTH WEST,Primary Schools,PRIMARY SCHOOLS
4009,BUSSELTON SENIOR HIGH SCHOOL,136-156 BUSSELL HIGHWAY,BUSSELTON,WA,6280,136-156 BUSSELL HIGHWAY,BUSSELTON,WA,6280,-33.6575772,115.3250971,08 9751 8900,SOUTH WEST,Senior High Schools,SECONDARY SCHOOLS
4191,BUTLER COLLEGE,15 MCCORMACK BOULEVARD,BUTLER,WA,6036,PO BOX 317,QUINNS ROCKS,WA,6030,-31.65166367,115.7087008,08 9561 4200,NORTH METROPOLITAN,Senior High Schools,SECONDARY SCHOOLS
5783,BUTLER PRIMARY SCHOOL,30 TOLLESBURY AVENUE,BUTLER,WA,6036,PO BOX 339,QUINNS ROCKS,WA,6030,-31.6461099,115.7027364,08 9561 7700,NORTH METROPOLITAN,Primary Schools,PRIMARY SCHOOLS
8313,BYFORD COMMUNITY KINDERGARTEN,49 PARK ROAD,BYFORD,WA,6122,49 PARK ROAD,BYFORD,WA,6122,-32.21674443,116.0124505,08 9525 1125,SOUTH METROPOLITAN,Community Kindergartens,COMMUNITY KINDERGARTENS
1435,BYFORD JOHN CALVIN SCHOOL,30 SOLDIERS ROAD,BYFORD,WA,6122,30 SOLDIERS ROAD,BYFORD,WA,6122,-32.22411516,116.0057146,08 9525 0261,SOUTH METROPOLITAN,NON-GOVT SCHOOLS,NON-GOVERNMENT
5078,BYFORD PRIMARY SCHOOL,36 CLIFTON STREET,BYFORD,WA,6122,36 CLIFTON STREET,BYFORD,WA,6122,-32.21943768,116.0121953,08 9526 6300,SOUTH METROPOLITAN,Primary Schools,PRIMARY SCHOOLS
4193,BYFORD SECONDARY COLLEGE,57 ABERNETHY ROAD,BYFORD,WA,6122,57 ABERNETHY ROAD,BYFORD,WA,6122,-32.22343162,116.0018793,08 9526 7700,SOUTH METROPOLITAN,Senior High Schools,SECONDARY SCHOOLS
5705,CABLE BEACH PRIMARY SCHOOL,DAKAS STREET,BROOME,WA,6725,PO BOX 1453,BROOME,WA,6725,-17.95879062,122.2164767,08 9194 7300,KIMBERLEY,Primary Schools,PRIMARY SCHOOLS
5079,CADOUX PRIMARY SCHOOL,3821 CADOUX-KOORDA ROAD,CADOUX,WA,6466,PO BOX 29,CADOUX,WA,6466,-30.77070399,117.1366031,08 9673 0670,WHEATBELT,Primary Schools,PRIMARY SCHOOLS
5800,CALADENIA PRIMARY SCHOOL,89 BOARDMAN ROAD,CANNING VALE,WA,6155,89 BOARDMAN ROAD,CANNING VALE,WA,6155,-32.07496451,115.932729,08 6258 9350,SOUTH METROPOLITAN,Primary Schools,PRIMARY SCHOOLS
5080,CALINGIRI PRIMARY SCHOOL,18 CAVELL STREET,CALINGIRI,WA,6569,18 CAVELL STREET,CALINGIRI,WA,6569,-31.090094,116.449243,08 9628 8500,WHEATBELT,Primary Schools,PRIMARY SCHOOLS
5081,CALISTA PRIMARY SCHOOL,22 HARLOW ROAD,CALISTA,WA,6167,PO BOX 457,KWINANA,WA,6966,-32.24514843,115.8106046,08 9414 2350,SOUTH METROPOLITAN,Primary Schools,PRIMARY SCHOOLS
5533,CAMBOON PRIMARY SCHOOL,FORDER ROAD,NORANDA,WA,6062,FORDER ROAD,NORANDA,WA,6062,-31.87744461,115.8910542,08 9218 1400,NORTH METROPOLITAN,Primary Schools,PRIMARY SCHOOLS
5777,CAMPBELL PRIMARY SCHOOL,CAMPBELL ROAD,CANNING VALE,WA,6155,CAMPBELL ROAD,CANNING VALE,WA,6155,-32.08812075,115.9307582,08 9456 8300,SOUTH METROPOLITAN,Primary Schools,PRIMARY SCHOOLS
4500,CANNING COLLEGE,MARQUIS STREET,BENTLEY,WA,6102,PO BOX 1148,BENTLEY DC,WA,6983,-32.00942925,115.8971202,08 9278 3500,SOUTH METROPOLITAN,Senior Colleges,SECONDARY SCHOOLS
4174,CANNING VALE COLLEGE,26 DUMBARTON ROAD,CANNING VALE,WA,6155,26 DUMBARTON ROAD,CANNING VALE,WA,6155,-32.08291838,115.9227838,08 9334 9000,SOUTH METROPOLITAN,Senior High Schools,SECONDARY SCHOOLS
6089,CANNING VALE EDUCATION SUPPORT CENTRE,THE RAMBLE,CANNING VALE,WA,6155,THE RAMBLE,CANNING VALE,WA,6155,-32.0760558,115.9128115,08 9427 6030,SOUTH METROPOLITAN,Education Support Centres,EDUCATION SUPPORT
5735,CANNING VALE PRIMARY SCHOOL,THE RAMBLE,CANNING VALE,WA,6155,THE RAMBLE,CANNING VALE,WA,6155,-32.0760558,115.9128115,08 9427 6000,SOUTH METROPOLITAN,Primary Schools,PRIMARY SCHOOLS
4169,CANNINGTON COMMUNITY COLLEGE,147 WHARF STREET,CANNINGTON,WA,6107,147 WHARF STREET,CANNINGTON,WA,6107,-32.013947,115.9370814,08 9351 2400,SOUTH METROPOLITAN,District High Schools,DISTRICT HIGH SCHOOLS
6083,CANNINGTON COMMUNITY EDUCATION SUPPORT CENTRE,147 WHARF STREET,CANNINGTON,WA,6107,147 WHARF STREET,CANNINGTON,WA,6107,-32.013947,115.9370814,08 9351 2480,SOUTH METROPOLITAN,Education Support Centres,EDUCATION SUPPORT
4178,CAPE NATURALISTE COLLEGE,30 YEBBLE DRIVE,VASSE,WA,6280,30 YEBBLE DRIVE,VASSE,WA,6280,-33.67693545,115.2438891,08 9746 3500,SOUTH WEST,Senior High Schools,SECONDARY SCHOOLS
5086,CAPEL PRIMARY SCHOOL,21 BARLEE ROAD,CAPEL,WA,6271,21 BARLEE ROAD,CAPEL,WA,6271,-33.55724062,115.5647487,08 9727 9100,SOUTH WEST,Primary Schools,PRIMARY SCHOOLS
5794,CARALEE COMMUNITY SCHOOL,24 WINNACOTT STREET,WILLAGEE,WA,6156,PO BOX 1031,WILLAGEE,WA,6156,-32.05149344,115.8043461,08 9312 4800,SOUTH METROPOLITAN,Primary Schools,PRIMARY SCHOOLS
5543,CARCOOLA PRIMARY SCHOOL,WISTERIA CRESCENT,PINJARRA,WA,6208,PO BOX 475,PINJARRA,WA,6208,-32.605769,115.893504,08 9531 5900,SOUTH METROPOLITAN,Primary Schools,PRIMARY SCHOOLS
1415,CAREY BAPTIST COLLEGE,51 WRIGHT ROAD,HARRISDALE,WA,6112,51 WRIGHT ROAD,HARRISDALE,WA,6112,-32.11159158,115.9355423,08 9394 9111,SOUTH METROPOLITAN,NON-GOVT SCHOOLS,NON-GOVERNMENT
1492,CAREY BAPTIST COLLEGE - FORRESTDALE,540 NICHOLSON ROAD,FORRESTDALE,WA,6112,540 NICHOLSON ROAD,FORRESTDALE,WA,6112,-32.16104802,115.9181942,08 6166 2205,SOUTH METROPOLITAN,NON-GOVT SCHOOLS,NON-GOVERNMENT
5088,CAREY PARK PRIMARY SCHOOL,ECCLESTONE STREET,CAREY PARK,WA,6230,ECCLESTONE STREET,CAREY PARK,WA,6230,-33.34906206,115.6505098,08 9796 2900,SOUTH WEST,Primary Schools,PRIMARY SCHOOLS
5605,CARINE PRIMARY SCHOOL,58 OSMASTON ROAD,CARINE,WA,6020,58 OSMASTON ROAD,CARINE,WA,6020,-31.85137169,115.7725012,08 9378 5600,NORTH METROPOLITAN,Primary Schools,PRIMARY SCHOOLS
4057,CARINE SENIOR HIGH SCHOOL,51 EVERINGHAM STREET,CARINE,WA,6020,51 EVERINGHAM STREET,CARINE,WA,6020,-31.85299735,115.775848,08 6235 7500,NORTH METROPOLITAN,Senior High Schools,SECONDARY SCHOOLS
5090,CARLISLE PRIMARY SCHOOL,1 WRIGHT STREET,KEWDALE,WA,6105,1 WRIGHT STREET,KEWDALE,WA,6105,-31.972706,115.921255,08 9264 7650,SOUTH METROPOLITAN,Primary Schools,PRIMARY SCHOOLS
1037,CARMEL ADVENTIST COLLEGE,210 GLENISLA ROAD,CARMEL,WA,6076,210 GLENISLA ROAD,CARMEL,WA,6076,-32.01473096,116.0940371,08 9293 5333,SOUTH METROPOLITAN,NON-GOVT SCHOOLS,NON-GOVERNMENT
1020,CARMEL ADVENTIST COLLEGE PRIMARY SCHOOL,18 FIRST AVENUE,CARMEL,WA,6076,18 FIRST AVENUE,CARMEL,WA,6076,-32.006706,116.091127,08 9291 6399,SOUTH METROPOLITAN,NON-GOVT SCHOOLS,NON-GOVERNMENT
1231,CARMEL SCHOOL,123 CRESSWELL ROAD,DIANELLA,WA,6059,123 CRESSWELL ROAD,DIANELLA,WA,6059,-31.89910743,115.8620749,08 9276 1644,NORTH METROPOLITAN,NON-GOVT SCHOOLS,NON-GOVERNMENT
5845,CARNABY RISE PRIMARY SCHOOL,POMODORA AVENUE,LANDSDALE,WA,6065,POMODORA AVENUE,LANDSDALE,WA,6065,-31.81744,115.874989,08 6401 8100,NORTH METROPOLITAN,Primary Schools,PRIMARY SCHOOLS
4067,CARNAMAH DISTRICT HIGH SCHOOL,48 MCPHERSON STREET,CARNAMAH,WA,6517,48 MCPHERSON STREET,CARNAMAH,WA,6517,-29.68727976,115.893099,08 9987 1000,MIDWEST,District High Schools,DISTRICT HIGH SCHOOLS
1400,CARNARVON CHRISTIAN SCHOOL,30 BABBAGE ISLAND ROAD,CARNARVON,WA,6701,30 BABBAGE ISLAND ROAD,CARNARVON,WA,6701,-24.87551778,113.6576221,08 9941 4533,MIDWEST,NON-GOVT SCHOOLS,NON-GOVERNMENT
4941,CARNARVON COMMUNITY COLLEGE,23-27 MARMION STREET,EAST CARNARVON,WA,6701,PO BOX 648,CARNARVON,WA,6701,-24.867098,113.676415,08 9941 6000,MIDWEST,K-12 SCHOOLS,K-12 SCHOOLS
5926,CARNARVON SCHOOL OF THE AIR,20 CARNARVON ROAD,CARNARVON,WA,6701,PMB 100,CARNARVON,WA,6701,-24.88431096,113.6607577,08 9947 2600,MIDWEST,Distance Education,PRIMARY SCHOOLS
5782,CARRAMAR PRIMARY SCHOOL,71 HOUGHTON DRIVE,CARRAMAR,WA,6031,71 HOUGHTON DRIVE,CARRAMAR,WA,6031,-31.71147916,115.7857211,08 9405 0600,NORTH METROPOLITAN,Primary Schools,PRIMARY SCHOOLS
6016,CARSON STREET SCHOOL,19 CARSON STREET,EAST VICTORIA PARK,WA,6101,19 CARSON STREET,EAST VICTORIA PARK,WA,6101,-31.99317499,115.9060766,08 6216 4950,SOUTH METROPOLITAN,Education Support Schools,EDUCATION SUPPORT
1436,CASA MIA MONTESSORI COMMUNITY SCHOOL,11 HAMILTON STREET,BASSENDEAN,WA,6054,11 HAMILTON STREET,BASSENDEAN,WA,6054,-31.90308107,115.9519135,08 9279 2209,NORTH METROPOLITAN,NON-GOVT SCHOOLS,NON-GOVERNMENT
5572,CASCADE PRIMARY SCHOOL,LOT 50 ASHA COURT,CASCADE,WA,6450,RMB 9152,ESPERANCE,WA,6450,-33.46836264,121.0723384,08 9075 1350,GOLDFIELDS,Primary Schools,PRIMARY SCHOOLS
6037,CASSIA EDUCATION SUPPORT CENTRE,16 BORONIA CLOSE,SOUTH HEDLAND,WA,6722,PO BOX 2138,SOUTH HEDLAND,WA,6722,-20.40888577,118.6079095,08 9172 8560,PILBARA,Education Support Centres,EDUCATION SUPPORT
5652,CASSIA PRIMARY SCHOOL,16 BORONIA CLOSE,SOUTH HEDLAND,WA,6722,PO BOX 2138,SOUTH HEDLAND,WA,6722,-20.40888577,118.6079095,08 9172 8500,PILBARA,Primary Schools,PRIMARY SCHOOLS
6030,CASTLEREAGH SCHOOL,CASTLEREAGH CLOSE,WILLETTON,WA,6155,CASTLEREAGH CLOSE,WILLETTON,WA,6155,-32.06093787,115.8818087,08 9266 6100,SOUTH METROPOLITAN,Education Support Schools,EDUCATION SUPPORT
5095,CASTLETOWN PRIMARY SCHOOL,EASTON ROAD,ESPERANCE,WA,6450,EASTON ROAD,ESPERANCE,WA,6450,-33.83182737,121.9084582,08 9076 2800,GOLDFIELDS,Primary Schools,PRIMARY SCHOOLS
5096,CAVERSHAM PRIMARY SCHOOL,65 COAST ROAD,WEST SWAN,WA,6055,65 COAST ROAD,WEST SWAN,WA,6055,-31.85860491,115.9831127,08 9218 6850,NORTH METROPOLITAN,Primary Schools,PRIMARY SCHOOLS
5846,CAVERSHAM VALLEY PRIMARY SCHOOL,60 SUMMERVILLE BOULEVARD,CAVERSHAM,WA,6055,60 SUMMERVILLE BOULEVARD,CAVERSHAM,WA,6055,-31.867901,115.968879,08 9461 2700,NORTH METROPOLITAN,Primary Schools,PRIMARY SCHOOLS
4132,CECIL ANDREWS COLLEGE,39 SEVILLE DRIVE,ARMADALE,WA,6112,PO BOX 295,ARMADALE,WA,6992,-32.14118727,115.9918834,08 9234 3400,SOUTH METROPOLITAN,Senior High Schools,SECONDARY SCHOOLS
4052,CENTRAL MIDLANDS SENIOR HIGH SCHOOL,RANFURLY STREET,MOORA,WA,6510,RANFURLY STREET,MOORA,WA,6510,-30.64115241,116.0152142,08 9653 9200,WHEATBELT,Senior High Schools,SECONDARY SCHOOLS
5558,CERVANTES PRIMARY SCHOOL,26 IBERIA STREET,CERVANTES,WA,6511,PO BOX 42,CERVANTES,WA,6511,-30.4991469,115.0659247,08 9688 5000,MIDWEST,Primary Schools,PRIMARY SCHOOLS
5567,CHALLIS COMMUNITY PRIMARY SCHOOL,40 BRAEMORE STREET,ARMADALE,WA,6112,40 BRAEMORE STREET,ARMADALE,WA,6112,-32.13924553,116.0006497,08 9391 4100,SOUTH METROPOLITAN,Primary Schools,PRIMARY SCHOOLS
4996,CHAMPION BAY SENIOR HIGH SCHOOL,HIGHBURY STREET,GERALDTON,WA,6530,PMB 102,GERALDTON,WA,6530,-28.79463546,114.63296,08 9965 8300,MIDWEST,Senior High Schools,SECONDARY SCHOOLS
5097,CHAPMAN VALLEY PRIMARY SCHOOL,3310 CHAPMAN VALLEY ROAD,NABAWA,WA,6532,PO BOX 28,NABAWA,WA,6532,-28.49970321,114.7915149,08 9988 1200,MIDWEST,Primary Schools,PRIMARY SCHOOLS
5719,CHARTHOUSE PRIMARY SCHOOL,43 RAND AVENUE,WAIKIKI,WA,6169,43 RAND AVENUE,WAIKIKI,WA,6169,-32.31714699,115.7508427,08 9591 7900,SOUTH METROPOLITAN,Primary Schools,PRIMARY SCHOOLS
5099,CHIDLOW PRIMARY SCHOOL,450 LILYDALE ROAD,CHIDLOW,WA,6556,450 LILYDALE ROAD,CHIDLOW,WA,6556,-31.85729037,116.2689559,08 9573 7200,NORTH METROPOLITAN,Primary Schools,PRIMARY SCHOOLS
1455,CHILD SIDE SCHOOL,32 ARMSTRONG ROAD,BOYANUP,WA,6237,32 ARMSTRONG ROAD,BOYANUP,WA,6237,-33.48598843,115.7411328,08 9731 5232,SOUTH WEST,NON-GOVT SCHOOLS,NON-GOVERNMENT
1085,CHISHOLM CATHOLIC COLLEGE,1104 BEAUFORT STREET,BEDFORD,WA,6052,1104 BEAUFORT STREET,BEDFORD,WA,6052,-31.91151257,115.9005647,08 9208 2500,NORTH METROPOLITAN,NON-GOVT SCHOOLS,NON-GOVERNMENT
1041,CHRIST CHURCH GRAMMAR SCHOOL,QUEENSLEA DRIVE,CLAREMONT,WA,6010,QUEENSLEA DRIVE,CLAREMONT,WA,6010,-31.98546117,115.7769868,08 9442 1555,NORTH METROPOLITAN,NON-GOVT SCHOOLS,NON-GOVERNMENT
1104,CHRIST THE KING CATHOLIC SCHOOL,LOMBADINA,LOMBADINA,WA,6725,LOMBADINA,LOMBADINA,WA,6725,-16.516088,122.892963,08 9192 4934,KIMBERLEY,NON-GOVT SCHOOLS,NON-GOVERNMENT
1015,CHRIST THE KING SCHOOL,87 YORK STREET,BEACONSFIELD,WA,6162,87 YORK STREET,BEACONSFIELD,WA,6162,-32.072343,115.773117,08 9487 9900,SOUTH METROPOLITAN,NON-GOVT SCHOOLS,NON-GOVERNMENT
1284,CHRISTIAN ABORIGINAL PARENT-DIRECTED SCHOOL,85-93 LINDSAY STREET,COOLGARDIE,WA,6429,85-93 LINDSAY STREET,COOLGARDIE,WA,6429,-30.95228,121.16131,08 9093 8000,GOLDFIELDS,NON-GOVT SCHOOLS,NON-GOVERNMENT
1347,CHRISTIAN ABORIGINAL PARENT-DIRECTED SCHOOL - KURRAWANG,"KURRAWANG COMTY, 1 SHARPE DRIVE",MOUNT BURGES,WA,6429,"KURRAWANG COMTY, 1 SHARPE DRIVE",MOUNT BURGES,WA,6429,-30.83002,121.3301,08 9091 2590,GOLDFIELDS,NON-GOVT SCHOOLS,NON-GOVERNMENT
1063,CHRISTIAN BROTHERS' COLLEGE,51 ELLEN STREET,FREMANTLE,WA,6160,51 ELLEN STREET,FREMANTLE,WA,6160,-32.05178739,115.7533646,08 9336 2700,SOUTH METROPOLITAN,NON-GOVT SCHOOLS,NON-GOVERNMENT
4152,CHRISTMAS ISLAND DISTRICT HIGH SCHOOL,MURRAY ROAD,CHRISTMAS ISLAND,WA,6798,PO BOX 866,CHRISTMAS ISLAND,WA,6798,-10.4352,105.6686,08 9164 8546,NORTH METROPOLITAN,OFFSHORE & MIGRATORY,DISTRICT HIGH SCHOOLS
1372,CHRYSALIS MONTESSORI SCHOOL,3-5 PARKLAND ROAD,GLENDALOUGH,WA,6016,3-5 PARKLAND ROAD,GLENDALOUGH,WA,6016,-31.91748633,115.8172243,08 9444 6025,NORTH METROPOLITAN,NON-GOVT SCHOOLS,NON-GOVERNMENT
5102,CHURCHLANDS PRIMARY SCHOOL,CROMARTY ROAD,FLOREAT,WA,6014,CROMARTY ROAD,FLOREAT,WA,6014,-31.92636369,115.794652,08 9253 9450,NORTH METROPOLITAN,Primary Schools,PRIMARY SCHOOLS
4012,CHURCHLANDS SENIOR HIGH SCHOOL,20 LUCCA STREET,CHURCHLANDS,WA,6018,20 LUCCA STREET,CHURCHLANDS,WA,6018,-31.91728978,115.7899902,08 9441 1700,NORTH METROPOLITAN,Senior High Schools,SECONDARY SCHOOLS
5103,CITY BEACH PRIMARY SCHOOL,30 MARAPANA ROAD,CITY BEACH,WA,6015,30 MARAPANA ROAD,CITY BEACH,WA,6015,-31.93538508,115.765126,08 9237 7400,NORTH METROPOLITAN,Primary Schools,PRIMARY SCHOOLS
4160,CLARKSON COMMUNITY HIGH SCHOOL,16 WALYUNGA BOULEVARD,CLARKSON,WA,6030,16 WALYUNGA BOULEVARD,CLARKSON,WA,6030,-31.67744562,115.7267272,08 6206 5000,NORTH METROPOLITAN,Senior High Schools,SECONDARY SCHOOLS
5731,CLARKSON PRIMARY SCHOOL,8 ALDERSEA CIRCLE,CLARKSON,WA,6030,PO BOX 2032,CLARKSON,WA,6030,-31.67754494,115.7183074,08 6207 5200,NORTH METROPOLITAN,Primary Schools,PRIMARY SCHOOLS
5793,CLAYTON VIEW PRIMARY SCHOOL,211 CLAYTON STREET,KOONGAMIA,WA,6056,211 CLAYTON STREET,KOONGAMIA,WA,6056,-31.90467468,116.0402451,08 9257 0800,NORTH METROPOLITAN,Primary Schools,PRIMARY SCHOOLS
5550,CLIFTON HILLS PRIMARY SCHOOL,1 BUTLER PASS,KELMSCOTT,WA,6111,1 BUTLER PASS,KELMSCOTT,WA,6111,-32.1094773,116.0207568,08 9234 7800,SOUTH METROPOLITAN,Primary Schools,PRIMARY SCHOOLS
5692,CLIFTON PARK PRIMARY SCHOOL,LUCY VICTORIA AVENUE,CLIFTON PARK,WA,6233,LUCY VICTORIA AVENUE,CLIFTON PARK,WA,6233,-33.30905652,115.7119826,08 9796 7300,SOUTH WEST,Primary Schools,PRIMARY SCHOOLS
1045,CLONTARF ABORIGINAL COLLEGE,295 MANNING ROAD,WATERFORD,WA,6152,295 MANNING ROAD,WATERFORD,WA,6152,-32.01565323,115.8929678,08 9251 0666,SOUTH METROPOLITAN,NON-GOVT SCHOOLS,NON-GOVERNMENT
6064,CLOVERDALE EDUCATION SUPPORT CENTRE,180 FISHER STREET,CLOVERDALE,WA,6105,180 FISHER STREET,CLOVERDALE,WA,6105,-31.96091754,115.935021,08 9438 7850,SOUTH METROPOLITAN,Education Support Centres,EDUCATION SUPPORT
5169,CLOVERDALE PRIMARY SCHOOL,180 FISHER STREET,CLOVERDALE,WA,6105,180 FISHER STREET,CLOVERDALE,WA,6105,-31.96091754,115.935021,08 9438 7800,SOUTH METROPOLITAN,Primary Schools,PRIMARY SCHOOLS
4199,COASTAL LAKES COLLEGE,135 BADGERUP AVENUE,LAKELANDS,WA,6180,135 BADGERUP AVENUE,LAKELANDS,WA,6180,-32.468193,115.762737,08 9583 2800,SOUTH METROPOLITAN,Senior High Schools,SECONDARY SCHOOLS
4157,COCOS ISLANDS DISTRICT HIGH SCHOOL,LOT 169 AIRFORCE ROAD,COCOS ISLAND,WA,6799,PO BOX 1095,COCOS ISLAND,WA,6799,-12.188,96.8288,08 9162 6650,NORTH METROPOLITAN,OFFSHORE & MIGRATORY,DISTRICT HIGH SCHOOLS
6004,COLLEGE ROW SCHOOL,2 COLLEGE ROW,SOUTH BUNBURY,WA,6230,2 COLLEGE ROW,SOUTH BUNBURY,WA,6230,-33.35398848,115.6315097,08 9724 3050,SOUTH WEST,Education Support Schools,EDUCATION SUPPORT
4014,COLLIE SENIOR HIGH SCHOOL,WITTENOOM STREET,COLLIE,WA,6225,PO BOX 808,COLLIE,WA,6225,-33.36307,116.156535,08 9735 1200,SOUTH WEST,Senior High Schools,SECONDARY SCHOOLS
5109,COLLIER PRIMARY SCHOOL,17 HOBBS AVENUE,COMO,WA,6152,PO BOX 111,COMO,WA,6952,-31.99132283,115.8732078,08 6455 0300,SOUTH METROPOLITAN,Primary Schools,PRIMARY SCHOOLS
4176,COMET BAY COLLEGE,2 ALLATOONA AVENUE,SECRET HARBOUR,WA,6173,PO BOX 7134,SECRET HARBOUR,WA,6173,-32.4158052,115.7629996,08 9553 8100,SOUTH METROPOLITAN,Senior High Schools,SECONDARY SCHOOLS
5804,COMET BAY PRIMARY SCHOOL,85 MILTONA DRIVE,SECRET HARBOUR,WA,6173,85 MILTONA DRIVE,SECRET HARBOUR,WA,6173,-32.41132592,115.7694346,08 9523 3700,SOUTH METROPOLITAN,Primary Schools,PRIMARY SCHOOLS
1496,COMMUNICARE ACADEMY,13 ROYAL STREET,KENWICK,WA,6107,13 ROYAL STREET,KENWICK,WA,6107,-32.03746429,115.9676942,08 6350 1872,SOUTH METROPOLITAN,NON-GOVT SCHOOLS,NON-GOVERNMENT
5110,COMO PRIMARY SCHOOL,206 LABOUCHERE ROAD,COMO,WA,6152,206 LABOUCHERE ROAD,COMO,WA,6152,-31.99709826,115.8613447,08 6455 0350,SOUTH METROPOLITAN,Primary Schools,PRIMARY SCHOOLS
4049,COMO SECONDARY COLLEGE,20 BRUCE STREET,COMO,WA,6152,20 BRUCE STREET,COMO,WA,6152,-32.00366439,115.8711551,08 9365 2000,SOUTH METROPOLITAN,Senior High Schools,SECONDARY SCHOOLS
5111,CONDINGUP PRIMARY SCHOOL,SUTCLIFFE STREET,CONDINGUP,WA,6450,PMB 9,ESPERANCE,WA,6450,-33.75467811,122.5268561,08 6021 2900,GOLDFIELDS,Primary Schools,PRIMARY SCHOOLS
5717,CONNOLLY PRIMARY SCHOOL,FAIRWAY CIRCLE,CONNOLLY,WA,6027,FAIRWAY CIRCLE,CONNOLLY,WA,6027,-31.74715629,115.7572958,08 6206 3200,NORTH METROPOLITAN,Primary Schools,PRIMARY SCHOOLS
4148,COODANUP COLLEGE,WANJEEP STREET,MANDURAH,WA,6210,WANJEEP STREET,MANDURAH,WA,6210,-32.54610231,115.7489824,08 9581 0900,SOUTH METROPOLITAN,Senior High Schools,SECONDARY SCHOOLS
5112,COOGEE PRIMARY SCHOOL,22 MAYOR ROAD,COOGEE,WA,6166,22 MAYOR ROAD,COOGEE,WA,6166,-32.12709335,115.7718242,08 6595 4900 ,SOUTH METROPOLITAN,Primary Schools,PRIMARY SCHOOLS
5071,COOINDA PRIMARY SCHOOL,10 ALLEN STREET,EAST BUNBURY,WA,6230,PO BOX 2454,BUNBURY,WA,6231,-33.33437038,115.6519077,08 9724 3000,SOUTH WEST,Primary Schools,PRIMARY SCHOOLS
5791,COOLBELLUP COMMUNITY SCHOOL,15 WAVERLEY ROAD,COOLBELLUP,WA,6163,15 WAVERLEY ROAD,COOLBELLUP,WA,6163,-32.08185386,115.8088051,08 9487 9500,SOUTH METROPOLITAN,Primary Schools,PRIMARY SCHOOLS
6047,COOLBELLUP LEARNING CENTRE,15 WAVERLEY ROAD,COOLBELLUP,WA,6163,15 WAVERLEY ROAD,COOLBELLUP,WA,6163,-32.08185386,115.8088051,08 9487 9502,SOUTH METROPOLITAN,Education Support Centres,EDUCATION SUPPORT
5116,COOLBINIA PRIMARY SCHOOL,BRADFORD STREET,COOLBINIA,WA,6050,BRADFORD STREET,COOLBINIA,WA,6050,-31.91309496,115.8590308,08 9427 8450,NORTH METROPOLITAN,Primary Schools,PRIMARY SCHOOLS
5117,COOLGARDIE PRIMARY SCHOOL,46 SHAW STREET,COOLGARDIE,WA,6429,46 SHAW STREET,COOLGARDIE,WA,6429,-30.95018807,121.1671483,08 9068 3100,GOLDFIELDS,Primary Schools,PRIMARY SCHOOLS
5606,COOLOONGUP PRIMARY SCHOOL,21 WESTERLY WAY,COOLOONGUP,WA,6168,21 WESTERLY WAY,COOLOONGUP,WA,6168,-32.29797619,115.7552819,08 9591 6900,SOUTH METROPOLITAN,Primary Schools,PRIMARY SCHOOLS
5120,COOROW PRIMARY SCHOOL,14 BRISTOL STREET,COOROW,WA,6515,14 BRISTOL STREET,COOROW,WA,6515,-29.87940195,116.0234057,08 9952 2800,MIDWEST,Primary Schools,PRIMARY SCHOOLS
1329,CORNERSTONE CHRISTIAN COLLEGE,2 GRACE COURT,BUSSELTON,WA,6280,2 GRACE COURT,BUSSELTON,WA,6280,-33.67026207,115.3229807,08 6706 7100,SOUTH WEST,NON-GOVT SCHOOLS,NON-GOVERNMENT
1299,CORPUS CHRISTI COLLEGE,50 MURDOCH DRIVE,BATEMAN,WA,6150,50 MURDOCH DRIVE,BATEMAN,WA,6150,-32.05699614,115.8429056,08 6332 2500,SOUTH METROPOLITAN,NON-GOVT SCHOOLS,NON-GOVERNMENT
4068,CORRIGIN DISTRICT HIGH SCHOOL,53 LYNCH STREET,CORRIGIN,WA,6375,53 LYNCH STREET,CORRIGIN,WA,6375,-32.32675596,117.8771847,08 9063 4400,WHEATBELT,District High Schools,DISTRICT HIGH SCHOOLS
5123,COTTESLOE PRIMARY SCHOOL,530 STIRLING HIGHWAY,PEPPERMINT GROVE,WA,6011,530 STIRLING HIGHWAY,PEPPERMINT GROVE,WA,6011,-32.002516,115.761337,08 9382 7300,NORTH METROPOLITAN,Primary Schools,PRIMARY SCHOOLS
1465,COURT GRAMMAR SCHOOL,1 BISHOP ROAD,MUNDIJONG,WA,6123,1 BISHOP ROAD,MUNDIJONG,WA,6123,-32.26965841,115.9912806,08 9526 5000,SOUTH METROPOLITAN,NON-GOVT SCHOOLS,NON-GOVERNMENT
5125,COWARAMUP PRIMARY SCHOOL,24 WAVERLEY ROAD,COWARAMUP,WA,6284,PO BOX 380,COWARAMUP,WA,6284,-33.85180355,115.1071506,08 9756 5400,SOUTH WEST,Primary Schools,PRIMARY SCHOOLS
5816,CRAIGIE HEIGHTS PRIMARY SCHOOL,47 SPINAWAY STREET,CRAIGIE,WA,6025,47 SPINAWAY STREET,CRAIGIE,WA,6025,-31.79004304,115.7602644,08 6206 2200,NORTH METROPOLITAN,Primary Schools,PRIMARY SCHOOLS
5126,CRANBROOK PRIMARY SCHOOL,63 KING STREET,CRANBROOK,WA,6321,PO BOX 109,CRANBROOK,WA,6321,-34.29276525,117.5508016,08 9826 0000,SOUTH WEST,Primary Schools,PRIMARY SCHOOLS
6059,CREANEY EDUCATION SUPPORT CENTRE,50 KINGSLEY DRIVE,KINGSLEY,WA,6026,6 CREANEY DRIVE,KINGSLEY,WA,6026,-31.80400875,115.7885222,08 9408 2950,NORTH METROPOLITAN,Education Support Centres,EDUCATION SUPPORT
5667,CREANEY PRIMARY SCHOOL,6 CREANEY DRIVE,KINGSLEY,WA,6026,6 CREANEY DRIVE,KINGSLEY,WA,6026,-31.80400875,115.7885224,08 9408 2900,NORTH METROPOLITAN,Primary Schools,PRIMARY SCHOOLS
5127,CUE PRIMARY SCHOOL,SIMPSON STREET,CUE,WA,6640,PO BOX 58,CUE,WA,6640,-27.42017103,117.8970268,08 9963 0200,MIDWEST,Primary Schools,PRIMARY SCHOOLS
4069,CUNDERDIN DISTRICT HIGH SCHOOL,CUBBINE STREET,CUNDERDIN,WA,6407,CUBBINE STREET,CUNDERDIN,WA,6407,-31.65627,117.243877,08 9635 3300,WHEATBELT,District High Schools,DISTRICT HIGH SCHOOLS
5757,CURRAMBINE PRIMARY SCHOOL,28 AMBASSADOR DRIVE,CURRAMBINE,WA,6028,28 AMBASSADOR DRIVE,CURRAMBINE,WA,6028,-31.73364969,115.7491022,08 6207 6100,NORTH METROPOLITAN,Primary Schools,PRIMARY SCHOOLS
5257,CURTIN PRIMARY SCHOOL,20 GOSS AVENUE,MANNING,WA,6152,20 GOSS AVENUE,MANNING,WA,6152,-32.00690937,115.8737611,08 6455 8050,SOUTH METROPOLITAN,Primary Schools,PRIMARY SCHOOLS
4015,CYRIL JACKSON SENIOR CAMPUS,53 REID STREET,BASSENDEAN,WA,6054,PO BOX 108,BASSENDEAN,WA,6934,-31.91290966,115.9424646,08 9413 4700,NORTH METROPOLITAN,Senior Colleges,SECONDARY SCHOOLS
6048,CYRIL JACKSON SENIOR CAMPUS EDUCATION SUPPORT CENTRE,53 REID STREET,BASSENDEAN,WA,6054,PO BOX 108,BASSENDEAN,WA,6934,-31.91290966,115.9424646,08 9413 4850,NORTH METROPOLITAN,Education Support Centres,EDUCATION SUPPORT
1306,DALE CHRISTIAN COLLEGE WA,150 FORREST ROAD,ARMADALE,WA,6112,150 FORREST ROAD,ARMADALE,WA,6112,-32.15932611,115.9987357,08 9497 1444,SOUTH METROPOLITAN,NON-GOVT SCHOOLS,NON-GOVERNMENT
5131,DALKEITH PRIMARY SCHOOL,44 CIRCE CIRCLE,DALKEITH,WA,6009,PO BOX 5402,DALKEITH,WA,6009,-31.99644115,115.797872,08 9287 7100,NORTH METROPOLITAN,Primary Schools,PRIMARY SCHOOLS
5703,DALMAIN PRIMARY SCHOOL,64 DALMAIN STREET,KINGSLEY,WA,6026,64 DALMAIN STREET,KINGSLEY,WA,6026,-31.81392422,115.7907121,08 6207 2200,NORTH METROPOLITAN,Primary Schools,PRIMARY SCHOOLS
4070,DALWALLINU DISTRICT HIGH SCHOOL,97 JOHNSTON STREET,DALWALLINU,WA,6609,97 JOHNSTON STREET,DALWALLINU,WA,6609,-30.2704732,116.6610879,08 6661 1500,WHEATBELT,District High Schools,DISTRICT HIGH SCHOOLS
4183,DALYELLUP COLLEGE,WAKE DRIVE,DALYELLUP,WA,6230,PO BOX 1096,BUNBURY,WA,6231,-33.40385496,115.6257673,08 9797 9200,SOUTH WEST,Senior High Schools,SECONDARY SCHOOLS
5779,DALYELLUP PRIMARY SCHOOL,14 HARTOG ROAD,DALYELLUP,WA,6230,PO BOX 679,BUNBURY,WA,6231,-33.39985687,115.6228338,08 9796 5600,SOUTH WEST,Primary Schools,PRIMARY SCHOOLS
5133,DAMPIER PRIMARY SCHOOL,42 CHURCH ROAD,DAMPIER,WA,6713,42 CHURCH ROAD,DAMPIER,WA,6713,-20.6644723,116.705717,08 9183 4300,PILBARA,Primary Schools,PRIMARY SCHOOLS
5135,DANDARAGAN PRIMARY SCHOOL,DANDARAGAN ROAD,DANDARAGAN,WA,6507,PO BOX 91,DANDARAGAN,WA,6507,-30.67304886,115.7019541,08 9688 9900,MIDWEST,Primary Schools,PRIMARY SCHOOLS
5136,DARDANUP PRIMARY SCHOOL,HAYWARD STREET,DARDANUP,WA,6236,HAYWARD STREET,DARDANUP,WA,6236,-33.40089693,115.7575813,08 9728 2060,SOUTH WEST,Primary Schools,PRIMARY SCHOOLS
5826,DARKAN PRIMARY SCHOOL,DARKAN SOUTH ROAD,DARKAN,WA,6392,DARKAN SOUTH ROAD,DARKAN,WA,6392,-33.33586626,116.7346573,08 6716 8900,WHEATBELT,Primary Schools,PRIMARY SCHOOLS
4116,DARLING RANGE SPORTS COLLEGE,117 BERKSHIRE ROAD,FORRESTFIELD,WA,6058,117 BERKSHIRE ROAD,FORRESTFIELD,WA,6058,-31.97566063,116.0108597,08 9453 0100,SOUTH METROPOLITAN,Senior High Schools,SECONDARY SCHOOLS
5138,DARLINGTON PRIMARY SCHOOL,2-14 AMHERST AVENUE,DARLINGTON,WA,6070,2-14 AMHERST AVENUE,DARLINGTON,WA,6070,-31.92015078,116.07754,08 9257 4000,NORTH METROPOLITAN,Primary Schools,PRIMARY SCHOOLS
5566,DAVALLIA PRIMARY SCHOOL,6 JUNIPER WAY,DUNCRAIG,WA,6023,6 JUNIPER WAY,DUNCRAIG,WA,6023,-31.84104283,115.7874618,08 9246 8750,NORTH METROPOLITAN,Primary Schools,PRIMARY SCHOOLS
5653,DAWSON PARK PRIMARY SCHOOL,120 BOUGAINVILLEA AVENUE,FORRESTFIELD,WA,6058,120 BOUGAINVILLEA AVENUE,FORRESTFIELD,WA,6058,-31.97788644,115.9999814,08 9483 2000,SOUTH METROPOLITAN,Primary Schools,PRIMARY SCHOOLS
5691,DAWUL REMOTE COMMUNITY SCHOOL,DOON DOON STATION,KUNUNURRA,WA,6743,PO BOX 1881,KUNUNURRA,WA,6743,-16.306425,128.2465,08 9167 0000,KIMBERLEY,Remote Community Schools,PRIMARY SCHOOLS
5874,DAYTON PRIMARY SCHOOL,290 ARTHUR STREET,DAYTON,WA,6055,290 ARTHUR STREET,DAYTON,WA,6055,-31.850991,115.975449,08 9461 2750,NORTH METROPOLITAN,Primary Schools,PRIMARY SCHOOLS
5414,DEANMORE PRIMARY SCHOOL,21 DEANMORE ROAD,KARRINYUP,WA,6018,21 DEANMORE ROAD,KARRINYUP,WA,6018,-31.88323747,115.7666076,08 9222 9250,NORTH METROPOLITAN,Primary Schools,PRIMARY SCHOOLS
5767,DENMARK PRIMARY SCHOOL,MITCHELL STREET,DENMARK,WA,6333,MITCHELL STREET,DENMARK,WA,6333,-34.96364766,117.3534296,08 9848 4700,SOUTH WEST,Primary Schools,PRIMARY SCHOOLS
4072,DENMARK SENIOR HIGH SCHOOL,956 SOUTH COAST HIGHWAY,DENMARK,WA,6333,956 SOUTH COAST HIGHWAY,DENMARK,WA,6333,-34.95741408,117.3645842,08 9848 0100,SOUTH WEST,Senior High Schools,SECONDARY SCHOOLS
4073,DERBY DISTRICT HIGH SCHOOL,10 ANDERSON STREET,DERBY,WA,6728,PMB 958,DERBY,WA,6728,-17.30943881,123.633739,08 9193 3000,KIMBERLEY,District High Schools,DISTRICT HIGH SCHOOLS
5144,DIANELLA HEIGHTS PRIMARY SCHOOL,9 BEAMAN STREET,DIANELLA,WA,6059,9 BEAMAN STREET,DIANELLA,WA,6059,-31.88273396,115.8661514,08 9218 1450,NORTH METROPOLITAN,Primary Schools,PRIMARY SCHOOLS
5309,DIANELLA PRIMARY COLLEGE,LAYTHORNE STREET,DIANELLA,WA,6059,LAYTHORNE STREET,DIANELLA,WA,6059,-31.87939428,115.8548645,08 9263 5100,NORTH METROPOLITAN,Primary Schools,PRIMARY SCHOOLS
4036,DIANELLA SECONDARY COLLEGE,180 NOLLAMARA AVENUE,DIANELLA,WA,6059,180 NOLLAMARA AVENUE,DIANELLA,WA,6059,-31.87818209,115.8549027,08 9345 9200,NORTH METROPOLITAN,Senior High Schools,SECONDARY SCHOOLS
6068,DIANELLA SECONDARY COLLEGE EDUCATION SUPPORT CENTRE,9 LAYTHORNE STREET,DIANELLA,WA,6059,9 LAYTHORNE STREET,DIANELLA,WA,6059,-31.879454,115.853534,08 9345 9272,NORTH METROPOLITAN,Education Support Centres,EDUCATION SUPPORT
1405,DIVINE MERCY COLLEGE,326 YANGEBUP ROAD,YANGEBUP,WA,6164,326 YANGEBUP ROAD,YANGEBUP,WA,6164,-32.12468637,115.8251697,08 9417 3267,SOUTH METROPOLITAN,NON-GOVT SCHOOLS,NON-GOVERNMENT
5760,DJIDI DJIDI ABORIGINAL SCHOOL,ERICA ENTRANCE,BUNBURY,WA,6230,ERICA ENTRANCE,BUNBURY,WA,6230,-33.3480231,115.6823564,08 9724 9444,SOUTH WEST,Primary Schools,PRIMARY SCHOOLS
5098,DJUGERARI REMOTE COMMUNITY SCHOOL,FOURTH STREET,DJUGERARI COMMUNITY,WA,6765,PO BOX 112,FITZROY CROSSING,WA,6765,-18.988706,125.510396,08 9981 4460,KIMBERLEY,Remote Community Schools,PRIMARY SCHOOLS
4131,DONGARA DISTRICT HIGH SCHOOL,13 CAVE WAY,DONGARA,WA,6525,13 CAVE WAY,DONGARA,WA,6525,-29.24926582,114.9285663,08 9927 7200,MIDWEST,District High Schools,DISTRICT HIGH SCHOOLS
4074,DONNYBROOK DISTRICT HIGH SCHOOL,10 BENTLEY STREET,DONNYBROOK,WA,6239,10 BENTLEY STREET,DONNYBROOK,WA,6239,-33.57479874,115.8209925,08 9732 4300,SOUTH WEST,District High Schools,DISTRICT HIGH SCHOOLS
5150,DOUBLEVIEW PRIMARY SCHOOL,273 FLAMBOROUGH STREET,DOUBLEVIEW,WA,6018,273 FLAMBOROUGH STREET,DOUBLEVIEW,WA,6018,-31.89845085,115.7776617,08 9392 7400,NORTH METROPOLITAN,Primary Schools,PRIMARY SCHOOLS
4075,DOWERIN DISTRICT HIGH SCHOOL,35 MEMORIAL AVENUE,DOWERIN,WA,6461,35 MEMORIAL AVENUE,DOWERIN,WA,6461,-31.19174,117.037882,08 9631 4400,WHEATBELT,District High Schools,DISTRICT HIGH SCHOOLS
5694,DRYANDRA PRIMARY SCHOOL,45 DRYANDRA DRIVE,MIRRABOOKA,WA,6061,45 DRYANDRA DRIVE,MIRRABOOKA,WA,6061,-31.85529627,115.8623522,08 9345 6400,NORTH METROPOLITAN,Primary Schools,PRIMARY SCHOOLS
5587,DUDLEY PARK PRIMARY SCHOOL,GILLARK STREET,MANDURAH,WA,6210,PO BOX 915,MANDURAH,WA,6210,-32.54121027,115.735351,08 9586 0650,SOUTH METROPOLITAN,Primary Schools,PRIMARY SCHOOLS
5773,DUMBLEYUNG PRIMARY SCHOOL,49 TAYLOR STREET,DUMBLEYUNG,WA,6350,49 TAYLOR STREET,DUMBLEYUNG,WA,6350,-33.31275734,117.7386752,08 9863 2500,WHEATBELT,Primary Schools,PRIMARY SCHOOLS
5575,DUNCRAIG PRIMARY SCHOOL,21 ROCHE ROAD,DUNCRAIG,WA,6023,21 ROCHE ROAD,DUNCRAIG,WA,6023,-31.83197629,115.7707544,08 6224 2150,NORTH METROPOLITAN,Primary Schools,PRIMARY SCHOOLS
4129,DUNCRAIG SENIOR HIGH SCHOOL,22 SULLIVAN ROAD,DUNCRAIG,WA,6023,22 SULLIVAN ROAD,DUNCRAIG,WA,6023,-31.82190527,115.767131,08 6241 5400,NORTH METROPOLITAN,Senior High Schools,SECONDARY SCHOOLS
5155,DUNSBOROUGH PRIMARY SCHOOL,40 TURNER STREET,DUNSBOROUGH,WA,6281,TURNER STREET,DUNSBOROUGH,WA,6281,-33.60060793,115.0997912,08 9781 3777,SOUTH WEST,Primary Schools,PRIMARY SCHOOLS
6029,DURHAM ROAD SCHOOL,37 DURHAM ROAD,BAYSWATER,WA,6053,37 DURHAM ROAD,BAYSWATER,WA,6053,-31.91510281,115.918598,08 9238 0900,NORTH METROPOLITAN,Education Support Schools,EDUCATION SUPPORT
5157,DWELLINGUP PRIMARY SCHOOL,10 NEWTON STREET,DWELLINGUP,WA,6213,10 NEWTON STREET,DWELLINGUP,WA,6213,-32.71529394,116.0641876,08 9538 5100,SOUTH METROPOLITAN,Primary Schools,PRIMARY SCHOOLS
5626,EAST BEECHBORO PRIMARY SCHOOL,BROCKMILL AVENUE,BEECHBORO,WA,6063,BROCKMILL AVENUE,BEECHBORO,WA,6063,-31.87236969,115.9508182,08 6216 1900,NORTH METROPOLITAN,Primary Schools,PRIMARY SCHOOLS
5801,EAST BUTLER PRIMARY SCHOOL,7 AMERSHAM CRESCENT,BUTLER,WA,6036,7 AMERSHAM CRESCENT,BUTLER,WA,6036,-31.6437585,115.7117596,08 9561 7777,NORTH METROPOLITAN,Primary Schools,PRIMARY SCHOOLS
5177,EAST FREMANTLE PRIMARY SCHOOL,8 FORREST STREET,FREMANTLE,WA,6160,8 FORREST STREET,FREMANTLE,WA,6160,-32.04789275,115.7591484,08 9432 1200,SOUTH METROPOLITAN,Primary Schools,PRIMARY SCHOOLS
5627,EAST HAMERSLEY PRIMARY SCHOOL,20 DOON WAY,HAMERSLEY,WA,6022,20 DOON WAY,HAMERSLEY,WA,6022,-31.84763444,115.8186051,08 9462 9550,NORTH METROPOLITAN,Primary Schools,PRIMARY SCHOOLS
5201,EAST HAMILTON HILL PRIMARY SCHOOL,27 BRADBURY ROAD,HAMILTON HILL,WA,6163,27 BRADBURY ROAD,HAMILTON HILL,WA,6163,-32.07753718,115.7892828,08 9487 9300,SOUTH METROPOLITAN,Primary Schools,PRIMARY SCHOOLS
5232,EAST KALGOORLIE PRIMARY SCHOOL,4 MAFEKING STREET,KALGOORLIE,WA,6430,PO BOX 10501,KALGOORLIE PO,WA,6433,-30.74742189,121.4854297,08 9068 2400,GOLDFIELDS,Primary Schools,PRIMARY SCHOOLS
5634,EAST KENWICK PRIMARY SCHOOL,96 KENWICK ROAD,KENWICK,WA,6107,96 KENWICK ROAD,KENWICK,WA,6107,-32.03172749,115.9796025,08 6216 4150,SOUTH METROPOLITAN,Primary Schools,PRIMARY SCHOOLS
4123,EAST KIMBERLEY COLLEGE,MANGALOO STREET,KUNUNURRA,WA,6743,PO BOX 617,KUNUNURRA,WA,6743,-15.76888254,128.7361825,08 9168 4400,KIMBERLEY,K-12 SCHOOLS,K-12 SCHOOLS
5571,EAST MADDINGTON PRIMARY SCHOOL,79 PITCHFORD AVENUE,MADDINGTON,WA,6109,79 PITCHFORD AVENUE,MADDINGTON,WA,6109,-32.05542616,116.0041234,08 9217 8650,SOUTH METROPOLITAN,Primary Schools,PRIMARY SCHOOLS
5537,EAST MANJIMUP PRIMARY SCHOOL,CNR YOUNG/OCONNOR STREETS,MANJIMUP,WA,6258,O'CONNOR STREET,MANJIMUP,WA,6258,-34.24502646,116.151728,08 9771 9200,SOUTH WEST,Primary Schools,PRIMARY SCHOOLS
5342,EAST NARROGIN PRIMARY SCHOOL,HOMER STREET,NARROGIN,WA,6312,HOMER STREET,NARROGIN,WA,6312,-32.93547426,117.1883722,08 9882 1600,WHEATBELT,Primary Schools,PRIMARY SCHOOLS
6065,EAST VICTORIA PARK EDUCATION SUPPORT CENTRE,30 BEATTY AVENUE,EAST VICTORIA PARK,WA,6101,30 BEATTY AVENUE,EAST VICTORIA PARK,WA,6101,-31.97884722,115.9080897,08 6228 0750,SOUTH METROPOLITAN,Education Support Centres,EDUCATION SUPPORT
5445,EAST VICTORIA PARK PRIMARY SCHOOL,30 BEATTY AVENUE,EAST VICTORIA PARK,WA,6101,30 BEATTY AVENUE,EAST VICTORIA PARK,WA,6101,-31.97884722,115.9080897,08 6228 0700,SOUTH METROPOLITAN,Primary Schools,PRIMARY SCHOOLS
5681,EAST WAIKIKI PRIMARY SCHOOL,21 GIBB ROAD,COOLOONGUP,WA,6168,21 GIBB ROAD,COOLOONGUP,WA,6168,-32.3040885,115.7605364,08 9591 6600,SOUTH METROPOLITAN,Primary Schools,PRIMARY SCHOOLS
5577,EAST WANNEROO PRIMARY SCHOOL,32 HIGH ROAD,WANNEROO,WA,6065,32 HIGH ROAD,WANNEROO,WA,6065,-31.7568505,115.8168149,08 6207 3600,NORTH METROPOLITAN,Primary Schools,PRIMARY SCHOOLS
4182,EASTERN GOLDFIELDS COLLEGE,70 CASSIDY STREET,KALGOORLIE,WA,6430,LOCKED BAG 33,KALGOORLIE PO,WA,6433,-30.75101639,121.4753746,08 9092 3100,GOLDFIELDS,Senior Colleges,SECONDARY SCHOOLS
6078,EASTERN GOLDFIELDS EDUCATION SUPPORT CENTRE,BOOMERANG CRESCENT,KALGOORLIE,WA,6430,PMB 9,KALGOORLIE,WA,6433,-30.76705062,121.4788763,08 9092 0000,GOLDFIELDS,Education Support Centres,EDUCATION SUPPORT
4017,EASTERN HILLS SENIOR HIGH SCHOOL,LOT 289 KEANE STREET EAST,MOUNT HELENA,WA,6082,LOT 289 KEANE STREET EAST,MOUNT HELENA,WA,6082,-31.87396818,116.2200892,08 9573 0300,NORTH METROPOLITAN,Senior High Schools,SECONDARY SCHOOLS
4161,EATON COMMUNITY COLLEGE,20 RECREATION DRIVE,EATON,WA,6232,20 RECREATION DRIVE,EATON,WA,6232,-33.3176055,115.7228908,08 9796 7000,SOUTH WEST,Senior High Schools,SECONDARY SCHOOLS
5158,EATON PRIMARY SCHOOL,35 DIADEM STREET,EATON,WA,6232,PO BOX 345,BUNBURY,WA,6231,-33.32181891,115.7028431,08 9796 2600,SOUTH WEST,Primary Schools,PRIMARY SCHOOLS
5677,EDDYSTONE PRIMARY SCHOOL,LITTORINA AVENUE,HEATHRIDGE,WA,6027,LITTORINA AVENUE,HEATHRIDGE,WA,6027,-31.76706411,115.7690002,08 9406 5100,NORTH METROPOLITAN,Primary Schools,PRIMARY SCHOOLS
5159,EDEN HILL PRIMARY SCHOOL,83A IVANHOE STREET,EDEN HILL,WA,6054,83A IVANHOE STREET,EDEN HILL,WA,6054,-31.89291076,115.9456049,08 6455 0800,NORTH METROPOLITAN,Primary Schools,PRIMARY SCHOOLS
5657,EDGEWATER PRIMARY SCHOOL,76 TREETOP AVENUE,EDGEWATER,WA,6027,76 TREETOP AVENUE,EDGEWATER,WA,6027,-31.76289339,115.7804131,08 6207 3200,NORTH METROPOLITAN,Primary Schools,PRIMARY SCHOOLS
1021,EDMUND RICE COLLEGE,3398 BINDOON DEWARS POOL ROAD,BINDOON,WA,6502,3398 BINDOON DEWARS POOL ROAD,BINDOON,WA,6502,-31.31077578,116.1856818,08 9576 5500,NORTH METROPOLITAN,NON-GOVT SCHOOLS,NON-GOVERNMENT
5699,EDNEY PRIMARY SCHOOL,204 NEWBURN ROAD,HIGH WYCOMBE,WA,6057,204 NEWBURN ROAD,HIGH WYCOMBE,WA,6057,-31.94734619,116.0069048,08 6216 4700,SOUTH METROPOLITAN,Primary Schools,PRIMARY SCHOOLS
5805,ELLEN STIRLING PRIMARY SCHOOL,23 STRATHMORE PARKWAY,ELLENBROOK,WA,6069,23 STRATHMORE PARKWAY,ELLENBROOK,WA,6069,-31.7702501,115.9750095,08 6497 4200,NORTH METROPOLITAN,Primary Schools,PRIMARY SCHOOLS
1424,ELLENBROOK CHRISTIAN COLLEGE,5 SANTONA BOULEVARD,ELLENBROOK,WA,6069,5 SANTONA BOULEVARD,ELLENBROOK,WA,6069,-31.786783,115.959178,08 9297 9297,NORTH METROPOLITAN,NON-GOVT SCHOOLS,NON-GOVERNMENT
5745,ELLENBROOK PRIMARY SCHOOL,65 FORTESCUE PLACE,ELLENBROOK,WA,6069,LOCKED BAG 3 ELLENBROOK PO,ELLENBROOK,WA,6069,-31.7926892,115.9747992,08 9297 7300,NORTH METROPOLITAN,Primary Schools,PRIMARY SCHOOLS
4177,ELLENBROOK SECONDARY COLLEGE,100 MAIN STREET,ELLENBROOK,WA,6069,100 MAIN STREET,ELLENBROOK,WA,6069,-31.78554916,115.9642807,08 9297 9700,NORTH METROPOLITAN,Senior High Schools,SECONDARY SCHOOLS
5161,EMBLETON PRIMARY SCHOOL,51 PRIESTLEY STREET,EMBLETON,WA,6062,51 PRIESTLEY STREET,EMBLETON,WA,6062,-31.90187965,115.909802,08 9338 9700,NORTH METROPOLITAN,Primary Schools,PRIMARY SCHOOLS
1432,EMMANUEL CATHOLIC COLLEGE,122 HAMMOND ROAD,SUCCESS,WA,6164,122 HAMMOND ROAD,SUCCESS,WA,6164,-32.12857818,115.8400696,08 9414 4000,SOUTH METROPOLITAN,NON-GOVT SCHOOLS,NON-GOVERNMENT
1288,EMMANUEL CHRISTIAN COMMUNITY SCHOOL,3 SALCOTT ROAD,GIRRAWHEEN,WA,6064,3 SALCOTT ROAD,GIRRAWHEEN,WA,6064,-31.84620429,115.8482622,08 9342 7377,NORTH METROPOLITAN,NON-GOVT SCHOOLS,NON-GOVERNMENT
1550,EMMAUS CATHOLIC PRIMARY SCHOOL,359 ARTHUR STREET,DAYTON,WA,6055,359 ARTHUR STREET,DAYTON,WA,6055,-31.84721343,115.9721543,08 9232 5000,NORTH METROPOLITAN,NON-GOVT SCHOOLS,NON-GOVERNMENT
6152,ENDEAVOUR EDUCATION SUPPORT CENTRE,38 ENDEAVOUR DRIVE,PORT KENNEDY,WA,6172,38 ENDEAVOUR DRIVE,PORT KENNEDY,WA,6172,-32.37037017,115.7507254,08 9591 6100,SOUTH METROPOLITAN,Education Support Centres,EDUCATION SUPPORT
5750,ENDEAVOUR PRIMARY SCHOOL,38 ENDEAVOUR DRIVE,PORT KENNEDY,WA,6172,38 ENDEAVOUR DRIVE,PORT KENNEDY,WA,6172,-32.37037017,115.7507254,08 9591 6100,SOUTH METROPOLITAN,Primary Schools,PRIMARY SCHOOLS
5162,ENEABBA PRIMARY SCHOOL,DEWAR STREET,ENEABBA,WA,6518,"PO BOX 107, DEWAR STREET",ENEABBA,WA,6518,-29.82022038,115.2681635,08 9933 3200,MIDWEST,Primary Schools,PRIMARY SCHOOLS
1481,ESPERANCE ANGLICAN COMMUNITY SCHOOL,5 GRIFFIN STREET,ESPERANCE,WA,6450,5 GRIFFIN STREET,ESPERANCE,WA,6450,-33.87140172,121.8844588,08 9083 2444,GOLDFIELDS,NON-GOVT SCHOOLS,NON-GOVERNMENT
1266,ESPERANCE CHRISTIAN SCHOOL,2 BLAKE STREET,ESPERANCE,WA,6450,2 BLAKE STREET,ESPERANCE,WA,6450,-33.86426103,121.8773873,08 9071 2703,GOLDFIELDS,NON-GOVT SCHOOLS,NON-GOVERNMENT
6098,ESPERANCE EDUCATION SUPPORT CENTRE,PINK LAKE ROAD,ESPERANCE,WA,6450,PO BOX 696,ESPERANCE,WA,6450,-33.86017872,121.868258,08 9071 9560,GOLDFIELDS,Education Support Centres,EDUCATION SUPPORT
5163,ESPERANCE PRIMARY SCHOOL,103 WINDICH STREET,ESPERANCE,WA,6450,PO BOX 150,ESPERANCE,WA,6450,-33.85981206,121.890272,08 9076 3600,GOLDFIELDS,Primary Schools,PRIMARY SCHOOLS
4018,ESPERANCE SENIOR HIGH SCHOOL,PINK LAKE ROAD,ESPERANCE,WA,6450,PO BOX 465,ESPERANCE,WA,6450,-33.86017872,121.868258,08 9071 9555,GOLDFIELDS,Senior High Schools,SECONDARY SCHOOLS
1527,ETON FARM PRIMARY SCHOOL,145 SUMMERFIELD ROAD,SERPENTINE,WA,6125,145 SUMMERFIELD ROAD,SERPENTINE,WA,6125,-32.346434,115.982615,08 9503 2996,SOUTH METROPOLITAN,NON-GOVT SCHOOLS,NON-GOVERNMENT
5790,EXCELSIOR PRIMARY SCHOOL,63 SHREEVE ROAD,CANNING VALE,WA,6155,63 SHREEVE ROAD,CANNING VALE,WA,6155,-32.08181283,115.943661,08 6258 9300,SOUTH METROPOLITAN,Primary Schools,PRIMARY SCHOOLS
4077,EXMOUTH DISTRICT HIGH SCHOOL,CARPENTER STREET,EXMOUTH,WA,6707,PO BOX 105,EXMOUTH,WA,6707,-21.93316002,114.1242962,08 9947 8888,MIDWEST,District High Schools,DISTRICT HIGH SCHOOLS
1518,FAIRBRIDGE COLLEGE,"FAIRBRIDGE VILLAGE, SOUTH WEST HIGHWAY",PINJARRA,WA,6208,"FAIRBRIDGE VILLAGE, SOUTH WEST HIGHWAY",PINJARRA,WA,6208,-32.60549898,115.9465216,08 9531 7932,SOUTH METROPOLITAN,NON-GOVT SCHOOLS,NON-GOVERNMENT
5167,FAIRVIEW PRIMARY SCHOOL,VERNON STREET,COLLIE,WA,6225,PO BOX 364,COLLIE,WA,6225,-33.34837356,116.1685678,08 9735 2300,SOUTH WEST,Primary Schools,PRIMARY SCHOOLS
5706,FALCON PRIMARY SCHOOL,30 BALOO CRESCENT,WANNANUP,WA,6210,PO BOX 5018,FALCON,WA,6210,-32.59274022,115.6429808,08 9584 7100,SOUTH METROPOLITAN,Primary Schools,PRIMARY SCHOOLS
5622,FALLS ROAD PRIMARY SCHOOL,50 FALLS ROAD,LESMURDIE,WA,6076,50 FALLS ROAD,LESMURDIE,WA,6076,-31.99216242,116.0470185,08 9291 2150,SOUTH METROPOLITAN,Primary Schools,PRIMARY SCHOOLS
4149,FITZROY VALLEY DISTRICT HIGH SCHOOL,FLYNN DRIVE,FITZROY CROSSING,WA,6765,PO BOX 106,FITZROY CROSSING,WA,6765,-18.196468,125.566842,08 9163 8600,KIMBERLEY,District High Schools,DISTRICT HIGH SCHOOLS
5607,FLINDERS PARK PRIMARY SCHOOL,51 YATANA ROAD,ALBANY,WA,6330,51 YATANA ROAD,ALBANY,WA,6330,-34.97824017,117.9300686,08 9892 5200,SOUTH WEST,Primary Schools,PRIMARY SCHOOLS
5173,FLOREAT PARK PRIMARY SCHOOL,38 CHANDLER AVENUE WEST,FLOREAT,WA,6014,38 CHANDLER AVENUE,FLOREAT,WA,6014,-31.936844,115.79122,08 9205 5600,NORTH METROPOLITAN,Primary Schools,PRIMARY SCHOOLS
5688,FOREST CRESCENT PRIMARY SCHOOL,83 FOREST CRESCENT,THORNLIE,WA,6108,83 FOREST CRESCENT,THORNLIE,WA,6108,-32.07607019,115.950007,08 9232 3550,SOUTH METROPOLITAN,Primary Schools,PRIMARY SCHOOLS
5613,FORRESTDALE PRIMARY SCHOOL,35 BROOME STREET,FORRESTDALE,WA,6112,35 BROOME STREET,FORRESTDALE,WA,6112,-32.15362108,115.9485362,08 9397 8100,SOUTH METROPOLITAN,Primary Schools,PRIMARY SCHOOLS
5174,FORRESTFIELD PRIMARY SCHOOL,45 SUSSEX ROAD,FORRESTFIELD,WA,6058,45 SUSSEX ROAD,FORRESTFIELD,WA,6058,-31.99141866,116.0088324,08 9483 2083,SOUTH METROPOLITAN,Primary Schools,PRIMARY SCHOOLS
1412,FOUNDATION CHRISTIAN COLLEGE,115 WALDRON BLVDE,GREENFIELDS,WA,6210,115 WALDRON BLVDE,GREENFIELDS,WA,6210,-32.52931617,115.7622888,08 9586 5444,SOUTH METROPOLITAN,NON-GOVT SCHOOLS,NON-GOVERNMENT
1470,FOUNTAIN COLLEGE,12 KARRI WAY,FERNDALE,WA,6148,12 KARRI WAY,FERNDALE,WA,6148,-32.03648539,115.9200109,08 9458 3555,SOUTH METROPOLITAN,NON-GOVT SCHOOLS,NON-GOVERNMENT
1398,FRANCIS JORDAN CATHOLIC SCHOOL,25 PETERBOROUGH DRIVE,CURRAMBINE,WA,6028,25 PETERBOROUGH DRIVE,CURRAMBINE,WA,6028,-31.73113849,115.7384265,08 9305 4990,NORTH METROPOLITAN,NON-GOVT SCHOOLS,NON-GOVERNMENT
5176,FRANKLAND RIVER PRIMARY SCHOOL,1 EVANS STREET,FRANKLAND RIVER,WA,6396,C/- POST OFFICE,FRANKLAND RIVER,WA,6396,-34.36312,117.078601,08 9855 0500,SOUTH WEST,Primary Schools,PRIMARY SCHOOLS
1373,FREDERICK IRWIN ANGLICAN SCHOOL,36-66 GORDON ROAD,MANDURAH,WA,6210,36-66 GORDON ROAD,MANDURAH,WA,6210,-32.50869435,115.7530802,08 9537 0000,SOUTH METROPOLITAN,NON-GOVT SCHOOLS,NON-GOVERNMENT
1351,FREMANTLE CHRISTIAN COLLEGE,110 ROCKINGHAM ROAD,HAMILTON HILL,WA,6163,110 ROCKINGHAM ROAD,HAMILTON HILL,WA,6163,-32.0843654,115.7751984,08 9430 6635,SOUTH METROPOLITAN,NON-GOVT SCHOOLS,NON-GOVERNMENT
4206,FREMANTLE COLLEGE,LEFROY ROAD,BEACONSFIELD,WA,6162,LEFROY ROAD,BEACONSFIELD,WA,6162,-32.06791,115.76798,08 9338 8900,SOUTH METROPOLITAN,Senior High Schools,SECONDARY SCHOOLS
6040,FREMANTLE LANGUAGE DEVELOPMENT CENTRE,24 WINNACOTT STREET,WILLAGEE,WA,6156,PO BOX 1031,WILLAGEE,WA,6156,-32.05149344,115.8043461,08 9312 4850,SOUTH METROPOLITAN,LANGUAGE DEVELOPMENT CENTRES,EDUCATION SUPPORT
5420,FREMANTLE PRIMARY SCHOOL,1 BRENNAN STREET,FREMANTLE,WA,6160,1 BRENNAN STREET,FREMANTLE,WA,6160,-32.05883702,115.7535353,08 9432 1400,SOUTH METROPOLITAN,Primary Schools,PRIMARY SCHOOLS
5105,FRESHWATER BAY PRIMARY SCHOOL,CNR BAY VIEW TERRACE/PRINCESS ROADS,CLAREMONT,WA,6010,CNR BAY VIEW TERRACE/PRINCESS ROADS,CLAREMONT,WA,6010,-31.98588984,115.7823097,08 6458 7000,NORTH METROPOLITAN,Primary Schools,PRIMARY SCHOOLS
5180,GAIRDNER PRIMARY SCHOOL,45 GAIRDNER ROAD SOUTH,GAIRDNER,WA,6337,45 GAIRDNER ROAD SOUTH,GAIRDNER,WA,6337,-34.2108414,118.9385849,08 9836 0400,SOUTH WEST,Primary Schools,PRIMARY SCHOOLS
5181,GASCOYNE JUNCTION REMOTE COMMUNITY SCHOOL,36 GREGORY STREET,GASCOYNE JUNCTION,WA,6705,PMB 102,CARNARVON,WA,6701,-25.05320773,115.2083775,08 9943 1600,MIDWEST,Primary Schools,PRIMARY SCHOOLS
6159,GEOGRAPHE EDUCATION SUPPORT CENTRE,LOT 153 CLYDEBANK AVENUE,BUSSELTON,WA,6280,LOT 153 CLYDEBANK AVENUE,BUSSELTON,WA,6280,-33.66661113,115.3288339,08 9751 7803,SOUTH WEST,Education Support Centres,EDUCATION SUPPORT
5775,GEOGRAPHE PRIMARY SCHOOL,CLYDEBANK AVENUE,BUSSELTON,WA,6280,CLYDEBANK AVENUE,BUSSELTON,WA,6280,-33.66661113,115.3288339,08 9751 7800,SOUTH WEST,Primary Schools,PRIMARY SCHOOLS
1429,GEORGIANA MOLLOY ANGLICAN SCHOOL,2 HAWKER APPROACH,BUSSELTON,WA,6280,2 HAWKER APPROACH,BUSSELTON,WA,6280,-33.6606425,115.3815495,08 9752 5252,SOUTH WEST,NON-GOVT SCHOOLS,NON-GOVERNMENT
1292,GERALDTON CHRISTIAN COLLEGE,15 CEDAR CRESCENT,STRATHALBYN,WA,6530,15 CEDAR CRESCENT,STRATHALBYN,WA,6530,-28.75198509,114.6442673,08 9938 9100 ,MIDWEST,NON-GOVT SCHOOLS,NON-GOVERNMENT
1484,GERALDTON FLEXIBLE LEARNING CENTRE,15 BAYLY STREET,GERALDTON,WA,6530,15 BAYLY STREET,GERALDTON,WA,6530,-28.76770179,114.6188153,08 9965 2264,MIDWEST,NON-GOVT SCHOOLS,NON-GOVERNMENT
1403,GERALDTON GRAMMAR SCHOOL,134 GEORGE ROAD,GERALDTON,WA,6530,134 GEORGE ROAD,GERALDTON,WA,6530,-28.76195313,114.621025,08 9965 7800,MIDWEST,NON-GOVT SCHOOLS,NON-GOVERNMENT
5183,GERALDTON PRIMARY SCHOOL,75 FITZGERALD STREET,GERALDTON,WA,6530,PO BOX 7207,GERALDTON PO,WA,6531,-28.77863662,114.6080556,08 9968 1850,MIDWEST,Primary Schools,PRIMARY SCHOOLS
4163,GERALDTON SENIOR HIGH SCHOOL,CARSON TERRACE,GERALDTON,WA,6530,PMB 10100,GERALDTON PO,WA,6531,-28.78068474,114.6117092,08 9965 8400,MIDWEST,Senior High Schools,SECONDARY SCHOOLS
5540,GIBBS STREET PRIMARY SCHOOL,79-93 GIBBS STREET,EAST CANNINGTON,WA,6107,79-93 GIBBS STREET,EAST CANNINGTON,WA,6107,-32.00835874,115.9537521,08 9473 9550,SOUTH METROPOLITAN,Primary Schools,PRIMARY SCHOOLS
5726,GIDGEGANNUP PRIMARY SCHOOL,BUNNING ROAD,GIDGEGANNUP,WA,6083,PO BOX 119,GIDGEGANNUP,WA,6083,-31.79416905,116.1954072,08 9578 4000,NORTH METROPOLITAN,Primary Schools,PRIMARY SCHOOLS
4031,GILMORE COLLEGE,DARGIN PLACE,ORELIA,WA,6167,PO BOX 86,KWINANA,WA,6966,-32.238266,115.814803,08 6595 2700,SOUTH METROPOLITAN,Senior High Schools,SECONDARY SCHOOLS
4135,GINGIN DISTRICT HIGH SCHOOL,1 DAW STREET,GINGIN,WA,6503,1 DAW STREET,GINGIN,WA,6503,-31.34427642,115.9123687,08 9575 5300,NORTH METROPOLITAN,District High Schools,DISTRICT HIGH SCHOOLS
4110,GIRRAWHEEN SENIOR HIGH SCHOOL,39 CALVERT WAY,GIRRAWHEEN,WA,6064,39 CALVERT WAY,GIRRAWHEEN,WA,6064,-31.83648977,115.8418703,08 9247 0555,NORTH METROPOLITAN,Senior High Schools,SECONDARY SCHOOLS
6011,GLADYS NEWTON SCHOOL,93 BALGA AVENUE,BALGA,WA,6061,93 BALGA AVENUE,BALGA,WA,6061,-31.85488957,115.847358,08 9413 1900,NORTH METROPOLITAN,Education Support Schools,EDUCATION SUPPORT
8367,GLEN FORREST COMMUNITY KINDERGARTEN,47A MARNIE ROAD,GLEN FORREST,WA,6071,47A MARNIE ROAD,GLEN FORREST,WA,6071,-31.90683334,116.1023159,08 9298 9250,NORTH METROPOLITAN,Community Kindergartens,COMMUNITY KINDERGARTENS
5186,GLEN FORREST PRIMARY SCHOOL,TILLBROOK STREET,GLEN FORREST,WA,6071,TILLBROOK STREET,GLEN FORREST,WA,6071,-31.91537475,116.100319,08 9298 6200,NORTH METROPOLITAN,Primary Schools,PRIMARY SCHOOLS
5769,GLEN HUON PRIMARY SCHOOL,MONASH BOULEVARD,EATON,WA,6232,MONASH BOULEVARD,EATON,WA,6232,-33.31523808,115.7261548,08 9796 7500,SOUTH WEST,Primary Schools,PRIMARY SCHOOLS
5655,GLENCOE PRIMARY SCHOOL,GLENCOE PARADE,HALLS HEAD,WA,6210,GLENCOE PARADE,HALLS HEAD,WA,6210,-32.54229018,115.7041404,08 9586 6800,SOUTH METROPOLITAN,Primary Schools,PRIMARY SCHOOLS
5534,GLENDALE PRIMARY SCHOOL,21 GLENDALE AVENUE,HAMERSLEY,WA,6022,21 GLENDALE AVENUE,HAMERSLEY,WA,6022,-31.84933302,115.8076235,08 9352 2700,NORTH METROPOLITAN,Primary Schools,PRIMARY SCHOOLS
5630,GLENGARRY PRIMARY SCHOOL,DOVERIDGE DRIVE,DUNCRAIG,WA,6023,25 DOVERIDGE DRIVE,DUNCRAIG,WA,6023,-31.82816781,115.7820552,08 9378 5678,NORTH METROPOLITAN,Primary Schools,PRIMARY SCHOOLS
4078,GNOWANGERUP DISTRICT HIGH SCHOOL,YOUGENUP ROAD,GNOWANGERUP,WA,6335,YOUGENUP ROAD,GNOWANGERUP,WA,6335,-33.938232,118.00801,08 9827 3300,SOUTH WEST,District High Schools,DISTRICT HIGH SCHOOLS
5838,GOLDEN BAY PRIMARY SCHOOL,9 THUNDELARRA DRIVE,GOLDEN BAY,WA,6174,PO BOX 690,MANDURAH,WA,6210,-32.42313769,115.7596842,08 9583 8800,SOUTH METROPOLITAN,Primary Schools,PRIMARY SCHOOLS
1390,GOLDEN HILL STEINER SCHOOL,222 SCOTSDALE ROAD,DENMARK,WA,6333,PO BOX 357,DENMARK,WA,6333,-34.94203668,117.3591392,08 9848 1811,SOUTH WEST,NON-GOVT SCHOOLS,NON-GOVERNMENT
1439,GOLDFIELDS BAPTIST COLLEGE,4 MAGUIRE STREET,KALGOORLIE,WA,6430,4 MAGUIRE STREET,KALGOORLIE,WA,6430,-30.77620533,121.4630845,08 9022 7535,GOLDFIELDS,NON-GOVT SCHOOLS,NON-GOVERNMENT
1245,GOOD SHEPHERD CATHOLIC PRIMARY SCHOOL,15 ARBUTHNOT STREET,KELMSCOTT,WA,6111,15 ARBUTHNOT STREET,KELMSCOTT,WA,6111,-32.12560377,116.0262673,08 9496 9200,SOUTH METROPOLITAN,NON-GOVT SCHOOLS,NON-GOVERNMENT
1300,GOOD SHEPHERD CATHOLIC SCHOOL,215 MORLEY DRIVE,LOCKRIDGE,WA,6054,215 MORLEY DRIVE,LOCKRIDGE,WA,6054,-31.88645235,115.9432801,08 6278 9500,NORTH METROPOLITAN,NON-GOVT SCHOOLS,NON-GOVERNMENT
5650,GOOLLELAL PRIMARY SCHOOL,30 CADOGAN STREET,KINGSLEY,WA,6026,30 CADOGAN STREET,KINGSLEY,WA,6026,-31.81486804,115.8013853,08 6207 2100,NORTH METROPOLITAN,Primary Schools,PRIMARY SCHOOLS
5713,GOOMALLING PRIMARY SCHOOL,65 HODDY STREET,GOOMALLING,WA,6460,PO BOX 146,GOOMALLING,WA,6460,-31.30541151,116.8289089,08 9623 7700,WHEATBELT,Primary Schools,PRIMARY SCHOOLS
5551,GOOSEBERRY HILL PRIMARY SCHOOL,24 LEDGER ROAD,GOOSEBERRY HILL,WA,6076,24 LEDGER ROAD,GOOSEBERRY HILL,WA,6076,-31.95646856,116.05602,08 9257 4600,SOUTH METROPOLITAN,Primary Schools,PRIMARY SCHOOLS
5192,GOSNELLS PRIMARY SCHOOL,173 HICKS STREET,GOSNELLS,WA,6110,173 HICKS STREET,GOSNELLS,WA,6110,-32.07774624,116.0035224,08 9234 6350,SOUTH METROPOLITAN,Primary Schools,PRIMARY SCHOOLS
4020,GOVERNOR STIRLING SENIOR HIGH SCHOOL,25 THIRD AVENUE,WOODBRIDGE,WA,6056,25 THIRD AVENUE,WOODBRIDGE,WA,6056,-31.88893826,115.9888056,08 6274 0300,NORTH METROPOLITAN,Senior High Schools,SECONDARY SCHOOLS
1371,GRACE CHRISTIAN SCHOOL,22 VITTORIA ROAD,BUNBURY,WA,6230,22 VITTORIA ROAD,BUNBURY,WA,6230,-33.33832794,115.6810759,08 9726 4200,SOUTH WEST,NON-GOVT SCHOOLS,NON-GOVERNMENT
5861,GRANDIS PRIMARY SCHOOL,220 GRANDIS BOULEVARD,BANKSIA GROVE,WA,6031,220 GRANDIS BOULEVARD,BANKSIA GROVE,WA,6031,-31.693914,115.807747,08 9233 6500,NORTH METROPOLITAN,Primary Schools,PRIMARY SCHOOLS
1431,GREAT SOUTHERN GRAMMAR SCHOOL,244 NANARUP ROAD,LOWER KALGAN,WA,6330,244 NANARUP ROAD,LOWER KALGAN,WA,6330,-34.94755539,117.9707332,08 9844 0300,SOUTH WEST,NON-GOVT SCHOOLS,NON-GOVERNMENT
5195,GREENBUSHES PRIMARY SCHOOL,7 BLACKWOOD ROAD,GREENBUSHES,WA,6254,7 BLACKWOOD ROAD,GREENBUSHES,WA,6254,-33.85097107,116.0594122,08 9782 5950,SOUTH WEST,Primary Schools,PRIMARY SCHOOLS
5708,GREENFIELDS PRIMARY SCHOOL,9 ZAMBESI DRIVE,GREENFIELDS,WA,6210,9 ZAMBESI DRIVE,GREENFIELDS,WA,6210,-32.53397367,115.7509389,08 9586 0600,SOUTH METROPOLITAN,Primary Schools,PRIMARY SCHOOLS
5196,GREENMOUNT PRIMARY SCHOOL,50-68 INNAMINCKA ROAD,GREENMOUNT,WA,6056,50-68 INNAMINCKA ROAD,GREENMOUNT,WA,6056,-31.89659298,116.0474336,08 9257 0600,NORTH METROPOLITAN,Primary Schools,PRIMARY SCHOOLS
4122,GREENWOOD COLLEGE,79 COOLIBAH DRIVE,GREENWOOD,WA,6024,79 COOLIBAH DRIVE,GREENWOOD,WA,6024,-31.82628484,115.7914439,08 9235 4300,NORTH METROPOLITAN,Senior High Schools,SECONDARY SCHOOLS
5818,GREENWOOD PRIMARY SCHOOL,12 MERIVALE WAY,GREENWOOD,WA,6024,12 MERIVALE WAY,GREENWOOD,WA,6024,-31.82890115,115.8090201,08 9352 2750,NORTH METROPOLITAN,Primary Schools,PRIMARY SCHOOLS
5623,GROVELANDS PRIMARY SCHOOL,14 GROVELANDS DRIVE,CAMILLO,WA,6111,14 GROVELANDS DRIVE,CAMILLO,WA,6111,-32.12023725,115.9990409,08 9496 9000,SOUTH METROPOLITAN,Primary Schools,PRIMARY SCHOOLS
1074,GUILDFORD GRAMMAR SCHOOL,11 TERRACE ROAD,GUILDFORD,WA,6055,11 TERRACE ROAD,GUILDFORD,WA,6055,-31.894036,115.981892,08 9377 9222,NORTH METROPOLITAN,NON-GOVT SCHOOLS,NON-GOVERNMENT
5197,GUILDFORD PRIMARY SCHOOL,125 HELENA STREET,GUILDFORD,WA,6055,125 HELENA STREET,GUILDFORD,WA,6055,-31.90233645,115.9678061,08 6216 1200,NORTH METROPOLITAN,Primary Schools,PRIMARY SCHOOLS
6075,GWYNNE PARK EDUCATION SUPPORT CENTRE,TIJUANA ROAD,ARMADALE,WA,6112,TIJUANA ROAD,ARMADALE,WA,6112,-32.1618132,115.999196,08 9391 4050,SOUTH METROPOLITAN,Education Support Centres,EDUCATION SUPPORT
5615,GWYNNE PARK PRIMARY SCHOOL,TIJUANA ROAD,ARMADALE,WA,6112,TIJUANA ROAD,ARMADALE,WA,6112,-32.1618132,115.999196,08 9391 4000,SOUTH METROPOLITAN,Primary Schools,PRIMARY SCHOOLS
1193,HALE SCHOOL,160 HALE ROAD,WEMBLEY DOWNS,WA,6019,160 HALE ROAD,WEMBLEY DOWNS,WA,6019,-31.91232249,115.7837828,08 9347 9777,NORTH METROPOLITAN,NON-GOVT SCHOOLS,NON-GOVERNMENT
5678,HALIDON PRIMARY SCHOOL,38 HALIDON STREET,KINGSLEY,WA,6026,38 HALIDON STREET,KINGSLEY,WA,6026,-31.80783809,115.801427,08 6207 2500,NORTH METROPOLITAN,Primary Schools,PRIMARY SCHOOLS
4145,HALLS CREEK DISTRICT HIGH SCHOOL,THOMAS STREET,HALLS CREEK,WA,6770,PO BOX 117,HALLS CREEK,WA,6770,-18.22567554,127.669356,08 9171 5555,KIMBERLEY,District High Schools,DISTRICT HIGH SCHOOLS
4166,HALLS HEAD COLLEGE,1 CASUARINA DRIVE,HALLS HEAD,WA,6210,1 CASUARINA DRIVE,HALLS HEAD,WA,6210,-32.55444963,115.6942404,08 9581 0600,SOUTH METROPOLITAN,Senior High Schools,SECONDARY SCHOOLS
6155,HALLS HEAD COLLEGE EDUCATION SUPPORT CENTRE,CASUARINA DRIVE,HALLS HEAD,WA,6210,CASUARINA DRIVE,HALLS HEAD,WA,6210,-32.55444963,115.6942404,08 9581 0613,SOUTH METROPOLITAN,Education Support Centres,EDUCATION SUPPORT
5738,HALLS HEAD PRIMARY SCHOOL,21 OLEANDER PLACE,HALLS HEAD,WA,6210,21 OLEANDER PLACE,HALLS HEAD,WA,6210,-32.55019839,115.6949747,08 9584 6900,SOUTH METROPOLITAN,Primary Schools,PRIMARY SCHOOLS
1475,HAMMOND PARK CATHOLIC PRIMARY SCHOOL,25 WOODROW AVE,HAMMOND PARK,WA,6164,25 WOODROW AVE,HAMMOND PARK,WA,6164,-32.17296139,115.8487346,08 6595 6100,SOUTH METROPOLITAN,NON-GOVT SCHOOLS,NON-GOVERNMENT
5823,HAMMOND PARK PRIMARY SCHOOL,10 EUCALYPTUS DRIVE,HAMMOND PARK,WA,6164,10 EUCALYPTUS DRIVE,HAMMOND PARK,WA,6164,-32.16737931,115.8435325,08 9494 3200,SOUTH METROPOLITAN,Primary Schools,PRIMARY SCHOOLS
4210,HAMMOND PARK SECONDARY COLLEGE,55 IRVINE PARADE,HAMMOND PARK,WA,6164,55 IRVINE PARADE,HAMMOND PARK,WA,6164,-32.172219,115.850504,08 9395 3800,SOUTH METROPOLITAN,Senior High Schools,SECONDARY SCHOOLS
5202,HAMPTON PARK PRIMARY SCHOOL,1 PAINE ROAD,MORLEY,WA,6062,1 PAINE ROAD,MORLEY,WA,6062,-31.886679,115.916552,08 9413 4200,NORTH METROPOLITAN,Primary Schools,PRIMARY SCHOOLS
4022,HAMPTON SENIOR HIGH SCHOOL,MORLEY DRIVE EAST,MORLEY,WA,6062,MORLEY DRIVE EAST,MORLEY,WA,6943,-31.89085713,115.92693,08 6235 7100,NORTH METROPOLITAN,Senior High Schools,SECONDARY SCHOOLS
5727,HANNANS PRIMARY SCHOOL,2A NANKIVILLE ROAD,KALGOORLIE,WA,6430,2A NANKIVILLE ROAD,KALGOORLIE,WA,6430,-30.72499605,121.4518583,08 9068 5300,GOLDFIELDS,Primary Schools,PRIMARY SCHOOLS
5785,HARMONY PRIMARY SCHOOL,60 AURORA DRIVE,ATWELL,WA,6164,60 AURORA DRIVE,ATWELL,WA,6164,-32.15122168,115.8645645,08 6174 6600,SOUTH METROPOLITAN,Primary Schools,PRIMARY SCHOOLS
5842,HARRISDALE PRIMARY SCHOOL,7 FAIRHAVEN AVENUE,HARRISDALE,WA,6112,7 FAIRHAVEN AVENUE,HARRISDALE,WA,6112,-32.12523245,115.9379534,08 9234 9700,SOUTH METROPOLITAN,Primary Schools,PRIMARY SCHOOLS
4198,HARRISDALE SENIOR HIGH SCHOOL,1 LAVERTON CRESCENT,HARRISDALE,WA,6112,1 LAVERTON CRESCENT,HARRISDALE,WA,6112,-32.127736,115.934521,08 9397 8000,SOUTH METROPOLITAN,Senior High Schools,SECONDARY SCHOOLS
5204,HARVEY PRIMARY SCHOOL,GIBBS STREET,HARVEY,WA,6220,PO BOX 504,HARVEY,WA,6220,-33.078014,115.895078,08 9782 3200,SOUTH WEST,Primary Schools,PRIMARY SCHOOLS
4023,HARVEY SENIOR HIGH SCHOOL,51 SOUTH WEST HIGHWAY,HARVEY,WA,6220,51 SOUTH WEST HIGHWAY,HARVEY,WA,6220,-33.08407299,115.9079627,08 9782 3800,SOUTH WEST,Senior High Schools,SECONDARY SCHOOLS
1529,HAVENPORT MSL COLLEGE,10 MERINO ENTRANCE,COCKBURN CENTRAL,WA,6164,10 MERINO ENTRANCE,COCKBURN CENTRAL,WA,6164,-32.11824521,115.8384621,08 6189 3521,SOUTH METROPOLITAN,NON-GOVT SCHOOLS,NON-GOVERNMENT
5658,HAWKER PARK PRIMARY SCHOOL,47 HAWKER AVENUE,WARWICK,WA,6024,47 HAWKER AVENUE,WARWICK,WA,6024,-31.84054196,115.7974927,08 9422 2000,NORTH METROPOLITAN,Primary Schools,PRIMARY SCHOOLS
8111,HAZEL ORME COMMUNITY KINDERGARTEN,96 SAMSON STREET,WHITE GUM VALLEY,WA,6162,96 SAMSON STREET,WHITE GUM VALLEY,WA,6162,-32.06190042,115.7698562,08 9335 2857,SOUTH METROPOLITAN,Community Kindergartens,COMMUNITY KINDERGARTENS
5632,HEATHRIDGE PRIMARY SCHOOL,55 CHANNEL DRIVE,HEATHRIDGE,WA,6027,55 CHANNEL DRIVE,HEATHRIDGE,WA,6027,-31.76034748,115.7606344,08 9233 8950,NORTH METROPOLITAN,Primary Schools,PRIMARY SCHOOLS
4053,HEDLAND SENIOR HIGH SCHOOL,78 HAMILTON ROAD,SOUTH HEDLAND,WA,6722,PO BOX 2609,SOUTH HEDLAND,WA,6722,-20.39878872,118.598616,08 9158 1900,PILBARA,Senior High Schools,SECONDARY SCHOOLS
1055,HELENA COLLEGE,52 BILGOMAN ROAD,GLEN FORREST,WA,6071,52 BILGOMAN ROAD,GLEN FORREST,WA,6071,-31.90747,116.09144,08 9298 9100,NORTH METROPOLITAN,NON-GOVT SCHOOLS,NON-GOVERNMENT
1522,HELENA RIVER STEINER SCHOOL,39 SPRING PARK ROAD,MIDLAND,WA,6056,39 SPRING PARK ROAD,MIDLAND,WA,6056,-31.88699664,116.0008624,08 9374 0230,NORTH METROPOLITAN,NON-GOVT SCHOOLS,NON-GOVERNMENT
5205,HELENA VALLEY PRIMARY SCHOOL,3700 HELENA VALLEY ROAD,HELENA VALLEY,WA,6056,3700 HELENA VALLEY ROAD,HELENA VALLEY,WA,6056,-31.92484077,116.0486524,08 9257 4650,NORTH METROPOLITAN,Primary Schools,PRIMARY SCHOOLS
5875,HENLEY BROOK PRIMARY SCHOOL,PARK STREET,HENLEY BROOK,WA,6055,PARK STREET,HENLEY BROOK,WA,6055,-31.812157,115.967764,08 6296 8500,NORTH METROPOLITAN,Primary Schools,PRIMARY SCHOOLS
1509,HENSMAN STREET ELEMENTARY,46 HENSMAN STREET,SOUTH PERTH,WA,6151,46 HENSMAN STREET,SOUTH PERTH,WA,6151,-31.98447619,115.8628084,08 9474 9066,SOUTH METROPOLITAN,NON-GOVT SCHOOLS,NON-GOVERNMENT
1469,HERITAGE COLLEGE PERTH,339 HAWTIN ROAD,FORRESTFIELD,WA,6058,339 HAWTIN ROAD,FORRESTFIELD,WA,6058,-31.98220269,116.0196448,08 9453 1833,SOUTH METROPOLITAN,NON-GOVT SCHOOLS,NON-GOVERNMENT
5206,HERNE HILL PRIMARY SCHOOL,60 ARGYLE STREET,HERNE HILL,WA,6056,60 ARGYLE STREET,HERNE HILL,WA,6056,-31.82980018,116.0237174,08 6296 8200,NORTH METROPOLITAN,Primary Schools,PRIMARY SCHOOLS
5208,HIGH WYCOMBE PRIMARY SCHOOL,60 NEWBURN ROAD,HIGH WYCOMBE,WA,6057,60 NEWBURN ROAD,HIGH WYCOMBE,WA,6057,-31.94106632,116.0021322,08 6228 7500,SOUTH METROPOLITAN,Primary Schools,PRIMARY SCHOOLS
5207,HIGHGATE PRIMARY SCHOOL,147 LINCOLN STREET,HIGHGATE,WA,6003,147 LINCOLN STREET,HIGHGATE,WA,6003,-31.94074584,115.8662509,08 9253 2700,NORTH METROPOLITAN,Primary Schools,PRIMARY SCHOOLS
8113,HILLARYS COMMUNITY KINDERGARTEN,137 BROADBEACH BOULEVARD,HILLARYS,WA,6025,137 BROADBEACH BOULEVARD,HILLARYS,WA,6025,-31.80813401,115.7364507,08 9401 3296,NORTH METROPOLITAN,Community Kindergartens,COMMUNITY KINDERGARTENS
5564,HILLARYS PRIMARY SCHOOL,75 LYMBURNER DRIVE,HILLARYS,WA,6025,75 LYMBURNER DRIVE,HILLARYS,WA,6025,-31.81329166,115.7525641,08 9306 0550,NORTH METROPOLITAN,Primary Schools,PRIMARY SCHOOLS
5209,HILLCREST PRIMARY SCHOOL,2 BAY VIEW STREET,BAYSWATER,WA,6053,2 BAY VIEW STREET,BAYSWATER,WA,6053,-31.90983465,115.9030701,08 9238 1000,NORTH METROPOLITAN,Primary Schools,PRIMARY SCHOOLS
5573,HILLMAN PRIMARY SCHOOL,35 UNNARO STREET,HILLMAN,WA,6168,PO BOX 2076,ROCKINGHAM DC,WA,6967,-32.28372166,115.7634602,08 9553 8300,SOUTH METROPOLITAN,Primary Schools,PRIMARY SCHOOLS
1253,HILLSIDE CHRISTIAN COLLEGE,336 HAWTIN ROAD,FORRESTFIELD,WA,6058,336 HAWTIN ROAD,FORRESTFIELD,WA,6058,-31.97978892,116.0173602,08 9453 2644,SOUTH METROPOLITAN,NON-GOVT SCHOOLS,NON-GOVERNMENT
5211,HILTON PRIMARY SCHOOL,21 RENNIE CRESCENT NORTH,HILTON,WA,6163,21 RENNIE CRESCENT NORTH,HILTON,WA,6163,-32.06805492,115.7841355,08 6458 7900,SOUTH METROPOLITAN,Primary Schools,PRIMARY SCHOOLS
5806,HOCKING PRIMARY SCHOOL,50 GUNGURRU AVENUE,HOCKING,WA,6065,50 GUNGURRU AVENUE,HOCKING,WA,6065,-31.76973684,115.8168776,08 6207 3150,NORTH METROPOLITAN,Primary Schools,PRIMARY SCHOOLS
6010,HOLLAND STREET SCHOOL,12 HOLLAND STREET,GERALDTON,WA,6530,PO BOX 7206,GERALDTON PO,WA,6531,-28.77996577,114.6084389,08 9923 6950,MIDWEST,Education Support Schools,EDUCATION SUPPORT
5213,HOLLYWOOD PRIMARY SCHOOL,117 MONASH AVENUE,NEDLANDS,WA,6009,117 MONASH AVENUE,NEDLANDS,WA,6009,-31.96944536,115.8072695,08 9278 6400,NORTH METROPOLITAN,Primary Schools,PRIMARY SCHOOLS
1450,HOLY CROSS COLLEGE,18 STRATHMORE PARKWAY,ELLENBROOK,WA,6069,18 STRATHMORE PARKWAY,ELLENBROOK,WA,6069,-31.773097,115.973832,08 9297 7600,NORTH METROPOLITAN,NON-GOVT SCHOOLS,NON-GOVERNMENT
1060,HOLY ROSARY SCHOOL,35 WILLIAMSTOWN ROAD,DOUBLEVIEW,WA,6018,35 WILLIAMSTOWN ROAD,DOUBLEVIEW,WA,6018,-31.90928598,115.7874998,08 9203 4500,NORTH METROPOLITAN,NON-GOVT SCHOOLS,NON-GOVERNMENT
1056,HOLY ROSARY SCHOOL,99 LOCH STREET,DERBY,WA,6728,99 LOCH STREET,DERBY,WA,6728,-17.3050183,123.6337752,08 9161 7200,KIMBERLEY,NON-GOVT SCHOOLS,NON-GOVERNMENT
1040,HOLY SPIRIT SCHOOL,BROMPTON ROAD,CITY BEACH,WA,6015,BROMPTON ROAD,CITY BEACH,WA,6015,-31.91694399,115.7652403,08 9341 2551,NORTH METROPOLITAN,NON-GOVT SCHOOLS,NON-GOVERNMENT
5850,HONEYWOOD PRIMARY SCHOOL,WINDJANA RISE,WANDI,WA,6167,WINDJANA RISE,WANDI,WA,6167,-32.1965,115.86159,08 6173 6100,SOUTH METROPOLITAN,Primary Schools,PRIMARY SCHOOLS
1437,HOPE CHRISTIAN COLLEGE,86 GOVERNMENT ROAD,ROELANDS,WA,6226,86 GOVERNMENT ROAD,ROELANDS,WA,6226,-33.29288692,115.8278834,08 9726 3613,SOUTH WEST,NON-GOVT SCHOOLS,NON-GOVERNMENT
5798,HOPETOUN PRIMARY SCHOOL,BUCKIE STREET,HOPETOUN,WA,6348,PO BOX 251,HOPETOUN,WA,6348,-33.94505538,120.1288975,08 6823 1000,GOLDFIELDS,Primary Schools,PRIMARY SCHOOLS
5819,HUDSON PARK PRIMARY SCHOOL,23 ARNOS WAY,GIRRAWHEEN,WA,6064,23 ARNOS WAY,GIRRAWHEEN,WA,6064,-31.83944795,115.8373291,08 9345 6550,NORTH METROPOLITAN,Primary Schools,PRIMARY SCHOOLS
5598,HUNTINGDALE PRIMARY SCHOOL,85 MATILDA STREET,HUNTINGDALE,WA,6110,85 MATILDA STREET,HUNTINGDALE,WA,6110,-32.07763465,115.9717011,08 9234 6700,SOUTH METROPOLITAN,Primary Schools,PRIMARY SCHOOLS
5215,HYDEN PRIMARY SCHOOL,36 NAUGHTON STREET,HYDEN,WA,6359,36 NAUGHTON STREET,HYDEN,WA,6359,-32.44862907,118.861951,08 9684 0800,WHEATBELT,Primary Schools,PRIMARY SCHOOLS
5654,ILLAWARRA PRIMARY SCHOOL,ILLAWARRA CRESCENT NORTH,BALLAJURA,WA,6066,ILLAWARRA CRESCENT NORTH,BALLAJURA,WA,6066,-31.8289464,115.8817576,08 9205 9800,NORTH METROPOLITAN,Primary Schools,PRIMARY SCHOOLS
1483,IMMACULATE HEART COLLEGE,34 SANTA GERTRUDIS DRIVE,LOWER CHITTERING,WA,6084,34 SANTA GERTRUDIS DRIVE,LOWER CHITTERING,WA,6084,-31.56032856,116.0783495,08 9571 8135,NORTH METROPOLITAN,NON-GOVT SCHOOLS,NON-GOVERNMENT
1544,INDIE SCHOOL WESTERN AUSTRALIA,60 YELVERTON DRIVE,MIDLAND,WA,6056,60 YELVERTON DRIVE,MIDLAND,WA,6056,-31.89339174,116.0035415,499360045,NORTH METROPOLITAN,NON-GOVT SCHOOLS,NON-GOVERNMENT
1120,INFANT JESUS SCHOOL,17  SMITH STREET,MORLEY,WA,6062,17  SMITH STREET,MORLEY,WA,6062,-31.89329786,115.8895814,08 9276 1769,NORTH METROPOLITAN,NON-GOVT SCHOOLS,NON-GOVERNMENT
5216,INGLEWOOD PRIMARY SCHOOL,34 NORMANBY ROAD,INGLEWOOD,WA,6052,34 NORMANBY ROAD,INGLEWOOD,WA,6052,-31.91722662,115.8864466,08 9223 9900,NORTH METROPOLITAN,Primary Schools,PRIMARY SCHOOLS
1468,INTERNATIONAL SCHOOL OF WESTERN AUSTRALIA,193 ST BRIGIDS TERRACE,DOUBLEVIEW,WA,6018,193 ST BRIGIDS TERRACE,DOUBLEVIEW,WA,6018,-31.8985,115.77762,08 9285 1144,NORTH METROPOLITAN,NON-GOVT SCHOOLS,NON-GOVERNMENT
1121,IONA PRESENTATION COLLEGE,33 PALMERSTON STREET,MOSMAN PARK,WA,6012,33 PALMERSTON STREET,MOSMAN PARK,WA,6012,-32.00852636,115.7677349,08 9384 0066,NORTH METROPOLITAN,NON-GOVT SCHOOLS,NON-GOVERNMENT
1418,IRENE MCCORMACK CATHOLIC COLLEGE,18 BRADMAN DRIVE,BUTLER,WA,6036,18 BRADMAN DRIVE,BUTLER,WA,6036,-31.65406275,115.709449,08 9562 2417,NORTH METROPOLITAN,NON-GOVT SCHOOLS,NON-GOVERNMENT
5218,JANDAKOT PRIMARY SCHOOL,53 BANINGAN AVENUE,SUCCESS,WA,6164,53 BANINGAN AVENUE,SUCCESS,WA,6164,-32.13857194,115.8458419,08 6174 2700,SOUTH METROPOLITAN,Primary Schools,PRIMARY SCHOOLS
5220,JARRAHDALE PRIMARY SCHOOL,20 WANLISS STREET,JARRAHDALE,WA,6124,20 WANLISS STREET,JARRAHDALE,WA,6124,-32.338619,116.062311,08 9526 7100,SOUTH METROPOLITAN,Primary Schools,PRIMARY SCHOOLS
5222,JERDACUTTUP PRIMARY SCHOOL,2894 JERDACUTTUP ROAD,RAVENSTHORPE,WA,6346,PO BOX 109,VIA RAVENSTHORPE,WA,6346,-33.70715991,120.4731266,08 6823 1100,GOLDFIELDS,Primary Schools,PRIMARY SCHOOLS
4080,JERRAMUNGUP DISTRICT HIGH SCHOOL,2 LANCASTER ROAD,JERRAMUNGUP,WA,6337,2 LANCASTER ROAD,JERRAMUNGUP,WA,6337,-33.94498437,118.9175865,08 9835 2600,SOUTH WEST,District High Schools,DISTRICT HIGH SCHOOLS
5224,JIGALONG REMOTE COMMUNITY SCHOOL,JIGALONG COMMUNITY,VIA NEWMAN,WA,6753,PMB 8,NEWMAN,WA,6753,-23.359798,120.781488,08 9191 4080 ,PILBARA,Remote Community Schools,PRIMARY SCHOOLS
5876,JILBUP PRIMARY SCHOOL,WHADJUK DRIVE,HAMMOND PARK,WA,6164,WHADJUK DRIVE,HAMMOND PARK,WA,6164,-32.1751793,115.8348411,08 6174 1450,SOUTH METROPOLITAN,Primary Schools,PRIMARY SCHOOLS
5835,JOHN BUTLER PRIMARY COLLEGE,2 HALESWORTH PARADE,BUTLER,WA,6036,2 HALESWORTH PARADE,BUTLER,WA,6036,-31.6321576,115.6940333,08 9562 9850,NORTH METROPOLITAN,Primary Schools,PRIMARY SCHOOLS
1358,JOHN CALVIN CHRISTIAN COLLEGE,18 ROBIN HOOD AVENUE,ARMADALE,WA,6112,18 ROBIN HOOD AVENUE,ARMADALE,WA,6112,-32.14876453,116.0066034,08 9497 0000,SOUTH METROPOLITAN,NON-GOVT SCHOOLS,NON-GOVERNMENT
1003,JOHN CALVIN SCHOOL,9 BEAUFORT ROAD,ALBANY,WA,6330,9 BEAUFORT ROAD,ALBANY,WA,6330,-35.003739,117.871159,08 9841 3840,SOUTH WEST,NON-GOVT SCHOOLS,NON-GOVERNMENT
4025,JOHN CURTIN COLLEGE OF THE ARTS,90 ELLEN STREET,FREMANTLE,WA,6160,90 ELLEN STREET,FREMANTLE,WA,6160,-32.04863279,115.7562238,08 9435 0700,SOUTH METROPOLITAN,Senior High Schools,SECONDARY SCHOOLS
4026,JOHN FORREST SECONDARY COLLEGE,180 DRAKE STREET,MORLEY,WA,6062,180 DRAKE STREET,MORLEY,WA,6062,-31.90416352,115.90089,08 9473 4000,NORTH METROPOLITAN,Senior High Schools,SECONDARY SCHOOLS
1310,JOHN PAUL COLLEGE,LIONEL STREET,KALGOORLIE,WA,6430,LIONEL STREET,KALGOORLIE,WA,6430,-30.76410096,121.4787154,08 9021 4377,GOLDFIELDS,NON-GOVT SCHOOLS,NON-GOVERNMENT
1268,JOHN PUJAJANGKA PIYIRN SCHOOL,MULAN ABORIGINAL COMMUNITY,"VIA HALLS CREEK, MULAN",WA,6770,MULAN ABORIGINAL COMMUNITY,"VIA HALLS CREEK, MULAN",WA,6770,-20.101182,127.595088,08 9168 8943,KIMBERLEY,NON-GOVT SCHOOLS,NON-GOVERNMENT
1378,JOHN SEPTIMUS ROE ANGLICAN COMMUNITY SCHOOL,2 BOYARE AVENUE,MIRRABOOKA,WA,6061,2 BOYARE AVENUE,MIRRABOOKA,WA,6061,-31.85936631,115.8567055,08 9247 2242,NORTH METROPOLITAN,NON-GOVT SCHOOLS,NON-GOVERNMENT
4196,JOHN TONKIN COLLEGE,EDUCATION DRIVE,MANDURAH,WA,6210,PO BOX 684,MANDURAH,WA,6210,-32.51758689,115.756358,08 9583 0500,SOUTH METROPOLITAN,Senior High Schools,SECONDARY SCHOOLS
6093,JOHN TONKIN COLLEGE EDUCATION SUPPORT CENTRE,EDUCATION DRIVE,MANDURAH,WA,6210,PO BOX 2122 DC,MANDURAH,WA,6210,-32.51758689,115.756358,08 9583 0571,SOUTH METROPOLITAN,Education Support Centres,EDUCATION SUPPORT
1357,JOHN WOLLASTON ANGLICAN COMMUNITY SCHOOL,CENTRE ROAD,CAMILLO,WA,6111,CENTRE ROAD,CAMILLO,WA,6111,-32.104726,116.007834,08 9495 8100,SOUTH METROPOLITAN,NON-GOVT SCHOOLS,NON-GOVERNMENT
1249,JOHN XXIII COLLEGE,JOHN XXIII AVENUE,MOUNT CLAREMONT,WA,6010,JOHN XXIII AVENUE,MOUNT CLAREMONT,WA,6010,-31.9599189,115.7847988,08 9383 0400,NORTH METROPOLITAN,NON-GOVT SCHOOLS,NON-GOVERNMENT
5226,JOLIMONT PRIMARY SCHOOL,657 HAY STREET,JOLIMONT,WA,6014,657 HAY STREET,JOLIMONT,WA,6014,-31.94879873,115.8093909,08 9205 5200,NORTH METROPOLITAN,Primary Schools,PRIMARY SCHOOLS
6084,JOONDALUP EDUCATION SUPPORT CENTRE,150 BLUE MOUNTAIN DRIVE,JOONDALUP,WA,6027,150 BLUE MOUNTAIN DRIVE,JOONDALUP,WA,6027,-31.72399412,115.7615597,08 9233 5800,NORTH METROPOLITAN,Education Support Centres,EDUCATION SUPPORT
5732,JOONDALUP PRIMARY SCHOOL,150 BLUE MOUNTAIN DRIVE,JOONDALUP,WA,6027,150 BLUE MOUNTAIN DRIVE,JOONDALUP,WA,6027,-31.72399412,115.7615597,08 9233 5800,NORTH METROPOLITAN,Primary Schools,PRIMARY SCHOOLS
4192,JOSEPH BANKS SECONDARY COLLEGE,40 JOSEPH BANKS BOULEVARD,BANKSIA GROVE,WA,6031,40 JOSEPH BANKS BOULEVARD,BANKSIA GROVE,WA,6031,-31.69867412,115.7965911,08 9303 7400,NORTH METROPOLITAN,Senior High Schools,SECONDARY SCHOOLS
5670,JUNGDRANUNG REMOTE COMMUNITY SCHOOL,"MANDANGALA COMMUNITY, 26 MC CARDIE ROAD",GLEN HILL STATION,WA,6743,PO BOX 354,KUNUNURRA,WA,6743,-16.542253,128.360497,08 9167 0050,KIMBERLEY,Remote Community Schools,PRIMARY SCHOOLS
4155,JURIEN BAY DISTRICT HIGH SCHOOL,19 HAMERSLEY STREET,JURIEN BAY,WA,6516,PO BOX 648,JURIEN BAY,WA,6516,-30.308373,115.040116,08 9688 6100,MIDWEST,District High Schools,DISTRICT HIGH SCHOOLS
1311,KALAMUNDA CHRISTIAN SCHOOL,6 HALLEENDALE ROAD,WALLISTON,WA,6076,6 HALLEENDALE ROAD,WALLISTON,WA,6076,-32.00465707,116.0691569,08 9291 8749,SOUTH METROPOLITAN,NON-GOVT SCHOOLS,NON-GOVERNMENT
6052,KALAMUNDA PRIMARY EDUCATION SUPPORT CENTRE,32 HEATH ROAD,KALAMUNDA,WA,6076,32 HEATH ROAD,KALAMUNDA,WA,6076,-31.97069617,116.0511421,08 9257 4750,SOUTH METROPOLITAN,Education Support Centres,EDUCATION SUPPORT
5228,KALAMUNDA PRIMARY SCHOOL,32 HEATH ROAD,KALAMUNDA,WA,6076,32 HEATH ROAD,KALAMUNDA,WA,6076,-31.97069617,116.0511421,08 9257 4700,SOUTH METROPOLITAN,Primary Schools,PRIMARY SCHOOLS
6150,KALAMUNDA SECONDARY EDUCATION SUPPORT CENTRE,12 COTHERSTONE ROAD,KALAMUNDA,WA,6076,12 COTHERSTONE ROAD,KALAMUNDA,WA,6076,-31.97788079,116.0561861,08 9293 6490,SOUTH METROPOLITAN,Education Support Centres,EDUCATION SUPPORT
4027,KALAMUNDA SENIOR HIGH SCHOOL,12 COTHERSTONE ROAD,KALAMUNDA,WA,6076,12 COTHERSTONE ROAD,KALAMUNDA,WA,6076,-31.97788079,116.0561861,08 9293 6400,SOUTH METROPOLITAN,Senior High Schools,SECONDARY SCHOOLS
5229,KALANNIE PRIMARY SCHOOL,41 LOCKE STREET,KALANNIE,WA,6468,PO BOX 83,KALANNIE,WA,6468,-30.36200225,117.1139186,08 9666 2400,WHEATBELT,Primary Schools,PRIMARY SCHOOLS
4173,KALBARRI DISTRICT HIGH SCHOOL,HACKNEY STREET,KALBARRI,WA,6536,PO BOX 584,KALBARRI,WA,6536,-27.712788,114.163881,08 9936 4800,MIDWEST,District High Schools,DISTRICT HIGH SCHOOLS
5231,KALGOORLIE PRIMARY SCHOOL,24 DUGAN STREET,KALGOORLIE,WA,6430,PO BOX 5473,KALGOORLIE,WA,6430,-30.74472512,121.4701713,08 9068 2100,GOLDFIELDS,Primary Schools,PRIMARY SCHOOLS
5927,KALGOORLIE SCHOOL OF THE AIR,CNR PIESSE/BROOKMAN STREETS,BOULDER,WA,6432,LOCKED BAG 15,KALGOORLIE PO,WA,6433,-30.78223722,121.4860622,08 9092 4000,GOLDFIELDS,Distance Education,PRIMARY SCHOOLS
4185,KALGOORLIE-BOULDER COMMUNITY HIGH SCHOOL,BOOMERANG CRESCENT,KALGOORLIE,WA,6430,LOCKED BAG 9,KALGOORLIE,WA,6430,-30.76705062,121.4788763,08 9092 0300,GOLDFIELDS,High Schools,SECONDARY SCHOOLS
5236,KALUMBURU REMOTE COMMUNITY SCHOOL,78 MCGOWAN PLACE,KALUMBURU,WA,6740,PMB 7,WYNDHAM,WA,6740,-14.29368,126.64282,08 9171 7460,KIMBERLEY,Remote Community Schools,PRIMARY SCHOOLS
5501,KAMBALDA PRIMARY SCHOOL,LARKIN STREET,KAMBALDA EAST,WA,6442,LARKIN STREET,KAMBALDA EAST,WA,6442,-31.2044049,121.6652357,08 9027 2900 ,GOLDFIELDS,Primary Schools,PRIMARY SCHOOLS
4111,KAMBALDA WEST DISTRICT HIGH SCHOOL,SALMON GUM ROAD,KAMBALDA WEST,WA,6442,SALMON GUM ROAD,KAMBALDA WEST,WA,6442,-31.20551775,121.6204895,08 9027 2950,GOLDFIELDS,District High Schools,DISTRICT HIGH SCHOOLS
5182,KAPINARA PRIMARY SCHOOL,2 CATESBY STREET,CITY BEACH,WA,6015,2 CATESBY STREET,CITY BEACH,WA,6015,-31.92497253,115.7630083,08 9237 7450,NORTH METROPOLITAN,Primary Schools,PRIMARY SCHOOLS
1523,KARALUNDI COLLEGE,"LOT 1, KARALUNDI DRIVE",MEEKATHARRA,WA,6642,"LOT 1, KARALUNDI DRIVE",MEEKATHARRA,WA,6642,-26.130058,118.693121,08 9981 2937,MIDWEST,NON-GOVT SCHOOLS,NON-GOVERNMENT
5596,KARDINYA PRIMARY SCHOOL,OCHILTREE WAY,KARDINYA,WA,6163,OCHILTREE WAY,KARDINYA,WA,6163,-32.06231235,115.8237277,08 9312 4900,SOUTH METROPOLITAN,Primary Schools,PRIMARY SCHOOLS
5535,KARRATHA PRIMARY SCHOOL,40 TURNER WAY,KARRATHA,WA,6714,40 TURNER WAY,KARRATHA,WA,6714,-20.72938851,116.8590823,08 9187 6300,PILBARA,Primary Schools,PRIMARY SCHOOLS
4056,KARRATHA SENIOR HIGH SCHOOL,DAMPIER ROAD,KARRATHA,WA,6714,PO BOX 1630,KARRATHA,WA,6714,-20.74695822,116.8241249,08 9182 6900,PILBARA,Senior High Schools,SECONDARY SCHOOLS
5239,KARRIDALE PRIMARY SCHOOL,12612 BUSSELL HIGHWAY,KARRIDALE,WA,6288,12612 BUSSELL HIGHWAY,KARRIDALE,WA,6288,-34.21784646,115.0955651,08 9781 5150,SOUTH WEST,Primary Schools,PRIMARY SCHOOLS
5240,KARRINYUP PRIMARY SCHOOL,15 HAMPTON STREET,KARRINYUP,WA,6018,15 HAMPTON STREET,KARRINYUP,WA,6018,-31.86967092,115.7762892,08 9422 2050,NORTH METROPOLITAN,Primary Schools,PRIMARY SCHOOLS
5241,KATANNING PRIMARY SCHOOL,15 DORE STREET,KATANNING,WA,6317,15 DORE STREET,KATANNING,WA,6317,-33.69203343,117.559204,08 9821 3600,WHEATBELT,Primary Schools,PRIMARY SCHOOLS
4028,KATANNING SENIOR HIGH SCHOOL,2-8 GOLF LINKS ROAD,KATANNING,WA,6317,2-8 GOLF LINKS ROAD,KATANNING,WA,6317,-33.68321703,117.5692745,08 9891 1100,WHEATBELT,Senior High Schools,SECONDARY SCHOOLS
1105,KEARNAN COLLEGE,25 MOORE STREET,MANJIMUP,WA,6258,25 MOORE STREET,MANJIMUP,WA,6258,-34.24140477,116.1416408,08 9777 0677,SOUTH WEST,NON-GOVT SCHOOLS,NON-GOVERNMENT
4081,KELLERBERRIN DISTRICT HIGH SCHOOL,54 JAMES STREET,KELLERBERRIN,WA,6410,54 JAMES STREET,KELLERBERRIN,WA,6410,-31.63149171,117.7186275,08 9045 6300,WHEATBELT,District High Schools,DISTRICT HIGH SCHOOLS
1302,KELMSCOTT JOHN CALVIN SCHOOL,322 LAKE ROAD,CHAMPION LAKES,WA,6111,322 LAKE ROAD,CHAMPION LAKES,WA,6111,-32.11804455,115.9882917,08 9390 6256,SOUTH METROPOLITAN,NON-GOVT SCHOOLS,NON-GOVERNMENT
5243,KELMSCOTT PRIMARY SCHOOL,RIVER ROAD,KELMSCOTT,WA,6111,RIVER ROAD,KELMSCOTT,WA,6111,-32.11849593,116.0209958,08 9496 9300,SOUTH METROPOLITAN,Primary Schools,PRIMARY SCHOOLS
4058,KELMSCOTT SENIOR HIGH SCHOOL,CNR THIRD AVENUE/CAMMILLO ROAD,KELMSCOTT,WA,6111,PO BOX 21,KELMSCOTT,WA,6991,-32.12147619,116.0110534,08 9495 7400,SOUTH METROPOLITAN,Senior High Schools,SECONDARY SCHOOLS
5244,KENDENUP PRIMARY SCHOOL,AUSTIN STREET,KENDENUP,WA,6323,AUSTIN STREET,KENDENUP,WA,6323,-34.482,117.618,08 9892 1850,SOUTH WEST,Primary Schools,PRIMARY SCHOOLS
1396,KENNEDY BAPTIST COLLEGE,FARRINGTON ROAD,MURDOCH,WA,6150,FARRINGTON ROAD,MURDOCH,WA,6150,-32.073356,115.829647,08 9314 7722,SOUTH METROPOLITAN,NON-GOVT SCHOOLS,NON-GOVERNMENT
5245,KENSINGTON PRIMARY SCHOOL,73 BANKSIA TERRACE,KENSINGTON,WA,6151,73 BANKSIA TERRACE,KENSINGTON,WA,6151,-31.98071268,115.8833484,08 6436 8448,SOUTH METROPOLITAN,Primary Schools,PRIMARY SCHOOLS
6012,KENSINGTON SECONDARY SCHOOL,19 GEORGE STREET,KENSINGTON,WA,6151,19 GEORGE STREET,KENSINGTON,WA,6151,-31.98547305,115.8857762,08 6436 8450,SOUTH METROPOLITAN,Education Support Schools,EDUCATION SUPPORT
